{"success":true,"error":false,"data":[{"Id":"JTDKDTB38F1100808","Name":"BE3 43P","Plate":null,"Lat":49.2784958,"Lon":-122.90934,"Fuel":52,"Address":"0 "},{"Id":"JTDKDTB3XG1589097","Name":"DN8 72K","Plate":null,"Lat":49.2785,"Lon":-122.909454,"Fuel":59,"Address":"0 "},{"Id":"JTDKDTB3XG1117823","Name":"CH7 30A","Plate":null,"Lat":49.27734,"Lon":-122.909409,"Fuel":44,"Address":"0 "},{"Id":"JTDKDTB31E1570547","Name":"AE1 90K","Plate":null,"Lat":49.2771149,"Lon":-122.909859,"Fuel":17,"Address":"0 "},{"Id":"JTDKDTB31G1126491","Name":"CR2 10N","Plate":null,"Lat":49.27702,"Lon":-122.909813,"Fuel":72,"Address":"0 "},{"Id":"JTDKDTB33G1126816","Name":"CR3 19N","Plate":null,"Lat":49.27722,"Lon":-122.910011,"Fuel":18,"Address":"0 "},{"Id":"JTDKDTB31H1597736","Name":"EV0 40A","Plate":null,"Lat":49.2769051,"Lon":-122.909828,"Fuel":85,"Address":"0 "},{"Id":"JTDKDTB37H1598230","Name":"EV0 60B","Plate":null,"Lat":49.2772675,"Lon":-122.910126,"Fuel":26,"Address":"0 "},{"Id":"JTDKDTB31G1117032","Name":"CH6 07A","Plate":null,"Lat":49.2769356,"Lon":-122.9099,"Fuel":23,"Address":"0 "},{"Id":"JTDKDTB39G1117375","Name":"CH6 01A","Plate":null,"Lat":49.27724,"Lon":-122.910133,"Fuel":69,"Address":"0 "},{"Id":"JTDKDTB3XG1118812","Name":"CH5 90A","Plate":null,"Lat":49.27648,"Lon":-122.909988,"Fuel":63,"Address":"0 "},{"Id":"JTDKDTB37E1080050","Name":"AE1 12K","Plate":null,"Lat":49.2763443,"Lon":-122.910248,"Fuel":30,"Address":"0 "},{"Id":"JTDKDTB39G1138873","Name":"DN8 10K","Plate":null,"Lat":49.27761,"Lon":-122.91143,"Fuel":68,"Address":"0 "},{"Id":"JTDKDTB3XJ1612045","Name":"FS7 47K","Plate":null,"Lat":49.2774467,"Lon":-122.911362,"Fuel":72,"Address":"0 "},{"Id":"JTDKDTB38G1138119","Name":"DN7 07K","Plate":null,"Lat":49.2777023,"Lon":-122.912,"Fuel":40,"Address":"8930 CORNERSTONE MEWS"},{"Id":"JTDKDTB34H1597391","Name":"EV0 03A","Plate":null,"Lat":49.27745,"Lon":-122.911819,"Fuel":33,"Address":"0 "},{"Id":"JTDKDTB3XG1118339","Name":"CH5 92A ","Plate":null,"Lat":49.2777061,"Lon":-122.912041,"Fuel":75,"Address":"0 "},{"Id":"JTDKDTB3XG1118941","Name":"CH6 44A","Plate":null,"Lat":49.27771,"Lon":-122.912079,"Fuel":22,"Address":"0 "},{"Id":"JTDKDTB32G1138505","Name":"DN7 21K","Plate":null,"Lat":49.2774849,"Lon":-122.911949,"Fuel":68,"Address":"0 "},{"Id":"JTDKDTB36G1138202","Name":"DN7 45K","Plate":null,"Lat":49.27734,"Lon":-122.912231,"Fuel":83,"Address":"0 "},{"Id":"JTDKDTB38G1119506","Name":"CH7 48A","Plate":null,"Lat":49.2766838,"Lon":-122.912392,"Fuel":69,"Address":"0 "},{"Id":"JTDKDTB34E1570705","Name":"AE1 81K","Plate":null,"Lat":49.28007,"Lon":-122.922974,"Fuel":26,"Address":"0 "},{"Id":"JTDKDTB35G1118474","Name":"CH5 80A","Plate":null,"Lat":49.23075,"Lon":-122.886322,"Fuel":85,"Address":"458 ROUSSEAU ST"},{"Id":"JTDKDTB34H1597813","Name":"EV0 19A","Plate":null,"Lat":49.2802124,"Lon":-122.923973,"Fuel":27,"Address":"0 "},{"Id":"JTDKDTB30F1101242","Name":"BE3 21P","Plate":null,"Lat":49.28023,"Lon":-122.923988,"Fuel":77,"Address":"0 "},{"Id":"JTDKDTB37F1112061","Name":"BV3 11D","Plate":null,"Lat":49.2802658,"Lon":-122.924026,"Fuel":25,"Address":"0 "},{"Id":"JTDKDTB36E1570608","Name":"AE1 52K","Plate":null,"Lat":49.2802238,"Lon":-122.924026,"Fuel":81,"Address":"0 "},{"Id":"JTDKDTB39H1598357","Name":"EV0 73B","Plate":null,"Lat":49.2799,"Lon":-122.923782,"Fuel":52,"Address":"0 RESIDENCE LN"},{"Id":"JTDKDTB39H1598407","Name":"EV0 84B","Plate":null,"Lat":49.2802,"Lon":-122.92411,"Fuel":52,"Address":"0 "},{"Id":"JTDKDTB34F1102992","Name":"BE3 49P","Plate":null,"Lat":49.279892,"Lon":-122.923889,"Fuel":75,"Address":"0 RESIDENCE LN"},{"Id":"JTDKDTB37G1588974","Name":"DN8 42K ","Plate":null,"Lat":49.23575,"Lon":-122.89357,"Fuel":72,"Address":"314 HOLMES ST"},{"Id":"JTDKDTB33G1125813","Name":"CR2 66N","Plate":null,"Lat":49.2357254,"Lon":-122.893654,"Fuel":75,"Address":"314 HOLMES ST"},{"Id":"JTDKDTB31E1079816","Name":"AE2 00K","Plate":null,"Lat":49.2292,"Lon":-122.89016,"Fuel":18,"Address":"421 FADER ST"},{"Id":"JTDKDTB35G1117423","Name":"CH5 75A","Plate":null,"Lat":49.2349968,"Lon":-122.895676,"Fuel":36,"Address":"548 GARFIELD ST"},{"Id":"JTDKDTB39G1117831","Name":"CH6 37A","Plate":null,"Lat":49.2279053,"Lon":-122.895279,"Fuel":85,"Address":"329 SHERBROOKE ST"},{"Id":"JTDKDTB3XG1126215","Name":"CR2 53N","Plate":null,"Lat":49.225544,"Lon":-122.894493,"Fuel":59,"Address":"328 KEARY ST"},{"Id":"JTDKDTB39G1138646","Name":"DN7 34K","Plate":null,"Lat":49.2255478,"Lon":-122.894722,"Fuel":29,"Address":"330 KEARY ST"},{"Id":"JTDKDTB31G1117175","Name":"CH6 06A","Plate":null,"Lat":49.22461,"Lon":-122.895477,"Fuel":77,"Address":"334 SIMPSON ST"},{"Id":"JTDKDTB33G1139047","Name":"DN8 32K","Plate":null,"Lat":49.23104,"Lon":-122.90036,"Fuel":52,"Address":"837 BURNABY ST"},{"Id":"JTDKDTB34G1138599","Name":"DN7 48K","Plate":null,"Lat":49.2316666,"Lon":-122.901115,"Fuel":66,"Address":"906 BURNABY ST"},{"Id":"JTDKDTB35H1598307","Name":"EV0 66B","Plate":null,"Lat":49.2286873,"Lon":-122.90274,"Fuel":36,"Address":"822 CHESTNUT ST"},{"Id":"JTDKDTB33H1598130","Name":"EV0 08B","Plate":null,"Lat":49.22053,"Lon":-122.897072,"Fuel":85,"Address":"364 CUMBERLAND ST"},{"Id":"JTDKDTB31H1597526","Name":"EV0 27B","Plate":null,"Lat":49.22934,"Lon":-122.904633,"Fuel":23,"Address":"920 CHILLIWACK ST"},{"Id":"JTDKDTB30G1119256","Name":"CH6 57A","Plate":null,"Lat":49.2181053,"Lon":-122.896416,"Fuel":44,"Address":"48 RICHMOND ST"},{"Id":"JTDKDTB38G1128206","Name":"EF9 03D","Plate":null,"Lat":49.2180023,"Lon":-122.896454,"Fuel":26,"Address":"48 RICHMOND ST"},{"Id":"JTDKDTB33E1079204","Name":"AE3 03K","Plate":null,"Lat":49.2261162,"Lon":-122.902557,"Fuel":36,"Address":"345 E 6TH AVE"},{"Id":"JTDKDTB38G1118114","Name":"CH7 07A","Plate":null,"Lat":49.2173347,"Lon":-122.8963,"Fuel":23,"Address":"48 RICHMOND ST"},{"Id":"JTDKDTB32E1570458","Name":"AE2 84K","Plate":null,"Lat":49.228363,"Lon":-122.905716,"Fuel":85,"Address":"228 CHURCHILL AVE"},{"Id":"JTDKDTB37F1102839","Name":"BE2 79P","Plate":null,"Lat":49.2233124,"Lon":-122.903709,"Fuel":36,"Address":"605 LIDSTER PL"},{"Id":"JTDKDTB3XH1597833","Name":"EV0 64A","Plate":null,"Lat":49.2267227,"Lon":-122.906776,"Fuel":59,"Address":"860 MASSEY ST"},{"Id":"JTDKDTB34G1127781","Name":"CR3 14N","Plate":null,"Lat":49.2229843,"Lon":-122.906128,"Fuel":19,"Address":"109 E 7TH AVE"},{"Id":"JTDKDTB33E1080093","Name":"AE3 00K","Plate":null,"Lat":49.2239075,"Lon":-122.906891,"Fuel":84,"Address":"110 E DURHAM ST"},{"Id":"JTDKDTB38G1138542","Name":"DN7 24K","Plate":null,"Lat":49.2108421,"Lon":-122.901917,"Fuel":27,"Address":"112 GRANVILLE ST"},{"Id":"JTDKDTB36H1597716","Name":"EV0 74A","Plate":null,"Lat":49.2234573,"Lon":-122.912064,"Fuel":23,"Address":"808 SANGSTER PL"},{"Id":"JTDKDTB32E1079713","Name":"AE2 61K","Plate":null,"Lat":49.2243156,"Lon":-122.914078,"Fuel":85,"Address":"16 MOTT CRES"},{"Id":"JTDKDTB31G1118598","Name":"CH7 20A","Plate":null,"Lat":49.2242775,"Lon":-122.9142,"Fuel":50,"Address":"14 MOTT CRES"},{"Id":"JTDKDTB35G1118846","Name":"CH6 22A","Plate":null,"Lat":49.22562,"Lon":-122.91539,"Fuel":39,"Address":"8365 10TH AVE"},{"Id":"JTDKDTB36E1079746","Name":"AE1 62K","Plate":null,"Lat":49.22413,"Lon":-122.914345,"Fuel":42,"Address":"11 MOTT CRES"},{"Id":"JTDKDTB36G1126499","Name":"CR2 78N","Plate":null,"Lat":49.22001,"Lon":-122.911331,"Fuel":22,"Address":"691 PARK CRES"},{"Id":"JTDKDTB37G1118685","Name":"CH6 23A","Plate":null,"Lat":49.2129822,"Lon":-122.906853,"Fuel":75,"Address":"121 3RD AVE"},{"Id":"JTDKDTB35E1080385","Name":"AE2 29K","Plate":null,"Lat":49.2250328,"Lon":-122.916229,"Fuel":48,"Address":"8326 10TH AVE"},{"Id":"JTDKDTB36E1080069","Name":"AE1 51K","Plate":null,"Lat":49.21423,"Lon":-122.909355,"Fuel":84,"Address":"112 4TH AVE"},{"Id":"JTDKDTB3XG1589083","Name":"DN8 95K","Plate":null,"Lat":49.21161,"Lon":-122.907745,"Fuel":38,"Address":"271 2ND ST"},{"Id":"JTDKDTB33G1139078","Name":"DN8 33K","Plate":null,"Lat":49.2090225,"Lon":-122.907089,"Fuel":84,"Address":"213 MANITOBA ST"},{"Id":"JTDKDTB39E1571056","Name":"AE0 78K","Plate":null,"Lat":49.20538,"Lon":-122.904984,"Fuel":64,"Address":"370 CLARKSON ST"},{"Id":"JTDKDTB3XG1589147","Name":"DN8 73K","Plate":null,"Lat":49.21142,"Lon":-122.909546,"Fuel":69,"Address":"236 3RD AVE"},{"Id":"JTDKDTB38G1119330","Name":"CH7 47A","Plate":null,"Lat":49.20522,"Lon":-122.905113,"Fuel":69,"Address":"29 BLACKWOOD ST"},{"Id":"JTDKDTB33G1118974","Name":"CH6 65A","Plate":null,"Lat":49.2085152,"Lon":-122.907631,"Fuel":81,"Address":"120 3RD ST"},{"Id":"JTDKDTB30G1126823","Name":"CR2 92N","Plate":null,"Lat":49.2160454,"Lon":-122.913406,"Fuel":85,"Address":"537 2ND ST"},{"Id":"JTDKDTB37H1597594","Name":"EV0 33B","Plate":null,"Lat":49.2055664,"Lon":-122.906609,"Fuel":33,"Address":"52 4TH ST"},{"Id":"JTDKDTB32H1598457","Name":"EV0 98B","Plate":null,"Lat":49.2035522,"Lon":-122.905907,"Fuel":26,"Address":"535 FRONT ST"},{"Id":"JTDKDTB3XG1117899","Name":"CH7 11A","Plate":null,"Lat":49.22037,"Lon":-122.918983,"Fuel":44,"Address":"827 2ND ST"},{"Id":"JTDKDTB31H1598403","Name":"EV0 81B","Plate":null,"Lat":49.22073,"Lon":-122.919441,"Fuel":29,"Address":"834 2ND ST"},{"Id":"JTDKDTB34G1138733","Name":"DN7 23K","Plate":null,"Lat":49.205265,"Lon":-122.907959,"Fuel":66,"Address":"521 VICTORIA ST"},{"Id":"JTDKDTB30G1124747","Name":"CR2 80N","Plate":null,"Lat":49.2112427,"Lon":-122.912483,"Fuel":35,"Address":"321 PINE ST"},{"Id":"JTDKDTB36E1079083","Name":"AE1 56K","Plate":null,"Lat":49.20608,"Lon":-122.909981,"Fuel":79,"Address":"422 ROYAL AVE"},{"Id":"JTDKDTB34H1598198","Name":"EV0 36B","Plate":null,"Lat":49.20784,"Lon":-122.911354,"Fuel":76,"Address":"497 QUEENS AVE"},{"Id":"JTDKDTB31J1599606","Name":"FK0 79L","Plate":null,"Lat":49.2184639,"Lon":-122.91935,"Fuel":85,"Address":"294 8TH AVE"},{"Id":"JTDKDTB34G1588978","Name":"DN8 50K","Plate":null,"Lat":49.2035446,"Lon":-122.908714,"Fuel":36,"Address":"609 CLARKSON ST"},{"Id":"JTDKDTB34G1589080","Name":"DN8 89K","Plate":null,"Lat":49.2111359,"Lon":-122.91497,"Fuel":73,"Address":"482 4TH AVE"},{"Id":"JTDKDTB39E1570294","Name":"AE0 80K","Plate":null,"Lat":49.2008171,"Lon":-122.909584,"Fuel":46,"Address":"639 QUAYSIDE DR"},{"Id":"JTDKDTB37G1126799","Name":"CR3 07N","Plate":null,"Lat":49.2057838,"Lon":-122.913612,"Fuel":85,"Address":"175 7TH ST"},{"Id":"JTDKDTB34G1118305","Name":"CH7 18A","Plate":null,"Lat":49.2198,"Lon":-122.924431,"Fuel":23,"Address":"941 4TH ST"},{"Id":"JTDKDTB35G1139129","Name":"DN8 20K","Plate":null,"Lat":49.2060776,"Lon":-122.914589,"Fuel":40,"Address":"705 QUEENS AVE"},{"Id":"JTDKDTB31E1079721","Name":"AE1 99K","Plate":null,"Lat":49.2088127,"Lon":-122.91703,"Fuel":21,"Address":"611 BLACKFORD ST"},{"Id":"JTDKDTB3XE1080141","Name":"AE1 13K","Plate":null,"Lat":49.2038231,"Lon":-122.914108,"Fuel":85,"Address":"750 ROYAL AVE"},{"Id":"JTDKDTB39H1598701","Name":"EV0 21C","Plate":null,"Lat":49.2053375,"Lon":-122.915535,"Fuel":77,"Address":"720 QUEENS AVE"},{"Id":"JTDKDTB30H1598831","Name":"EV0 34C","Plate":null,"Lat":49.20304,"Lon":-122.913925,"Fuel":59,"Address":"84 8TH ST"},{"Id":"JTDKDTB37G1589011","Name":"DN8 43K ","Plate":null,"Lat":49.2029648,"Lon":-122.91423,"Fuel":34,"Address":"0 BLACKIE ST"},{"Id":"JTDKDTB35G1138272","Name":"DN6 81K","Plate":null,"Lat":49.2052765,"Lon":-122.916031,"Fuel":60,"Address":"749 QUEENS AVE"},{"Id":"JTDKDTB39G1119630","Name":"AE2 72K","Plate":null,"Lat":49.2167854,"Lon":-122.9249,"Fuel":77,"Address":"852 6TH ST"},{"Id":"JTDKDTB36E1079438","Name":"AE1 58K","Plate":null,"Lat":49.2170372,"Lon":-122.925117,"Fuel":22,"Address":"871 6TH ST"},{"Id":"JTDKDTB34H1597696","Name":"EV0 18A","Plate":null,"Lat":49.208683,"Lon":-122.918922,"Fuel":85,"Address":"325 ASH ST"},{"Id":"JTDKDTB39H1598259","Name":"EV0 80B","Plate":null,"Lat":49.21809,"Lon":-122.926674,"Fuel":67,"Address":"945 6TH ST"},{"Id":"JTDKDTB31G1126460","Name":"CR2 09N","Plate":null,"Lat":49.20721,"Lon":-122.918915,"Fuel":73,"Address":"313 8TH ST"},{"Id":"JTDKDTB35G1127000","Name":"CR3 05N","Plate":null,"Lat":49.206,"Lon":-122.919785,"Fuel":50,"Address":"867 3RD AVE"},{"Id":"JTDKDTB35E1080225","Name":"AE2 28K","Plate":null,"Lat":49.2085266,"Lon":-122.9247,"Fuel":47,"Address":"964 5TH AVE"},{"Id":"JTDKDTB39G1589043","Name":"DN8 55K","Plate":null,"Lat":49.20316,"Lon":-122.920792,"Fuel":48,"Address":"202 MOWAT ST"},{"Id":"JTDKDTB35G1589170","Name":"DN9 12K","Plate":null,"Lat":49.2042274,"Lon":-122.922028,"Fuel":85,"Address":"230 MOWAT ST"},{"Id":"JTDKDTB36E1079858","Name":"AE1 63K","Plate":null,"Lat":49.204174,"Lon":-122.923172,"Fuel":30,"Address":"1027 3RD AVE"},{"Id":"JTDKDTB34G1138537","Name":"DN7 28K","Plate":null,"Lat":49.2010345,"Lon":-122.921257,"Fuel":60,"Address":"1168 AUCKLAND ST"},{"Id":"JTDKDTB35G1119317","Name":"CH6 92A","Plate":null,"Lat":49.2152,"Lon":-122.933922,"Fuel":35,"Address":"974 10TH ST"},{"Id":"JTDKDTB37H1597403","Name":"EV0 05A","Plate":null,"Lat":49.20021,"Lon":-122.923981,"Fuel":84,"Address":"1340 QUAYSIDE DR"},{"Id":"JTDKDTB34E1079860","Name":"AE1 49K","Plate":null,"Lat":49.2101555,"Lon":-122.9324,"Fuel":85,"Address":"1116 HAMILTON ST"},{"Id":"JTDKDTB30G1119189","Name":"CH6 48A","Plate":null,"Lat":49.211853,"Lon":-122.934059,"Fuel":80,"Address":"1111 EDINBURGH ST"},{"Id":"JTDKDTB3XG1138879","Name":"DN8 06K","Plate":null,"Lat":49.2055,"Lon":-122.930153,"Fuel":85,"Address":"1287 5TH AVE"},{"Id":"JTDKDTB3XF1110675","Name":"BV2 99D","Plate":null,"Lat":49.2063446,"Lon":-122.931656,"Fuel":46,"Address":"526 13TH ST"},{"Id":"JTDKDTB31G1138656","Name":"DN7 39K","Plate":null,"Lat":49.2047844,"Lon":-122.932114,"Fuel":31,"Address":"506 14TH ST"},{"Id":"JTDKDTB39E1570702","Name":"AE0 86K","Plate":null,"Lat":49.31976,"Lon":-123.0215,"Fuel":77,"Address":"0 "},{"Id":"JTDKDTB36E1570687","Name":"AE0 99K","Plate":null,"Lat":49.31551,"Lon":-123.019424,"Fuel":85,"Address":"0 "},{"Id":"JTDKDTB39G1117795","Name":"CH7 12A","Plate":null,"Lat":49.30584,"Lon":-123.03228,"Fuel":77,"Address":"220 MOUNTAIN HWY"},{"Id":"JTDKDTB3XH1597797","Name":"EV0 51A","Plate":null,"Lat":49.3072968,"Lon":-123.035378,"Fuel":56,"Address":"390 HARBOUR AVE"},{"Id":"JTDKDTB38G1119201","Name":"CH6 85A","Plate":null,"Lat":49.31021,"Lon":-123.03923,"Fuel":39,"Address":"1270 5TH ST E"},{"Id":"JTDKDTB39F1101997","Name":"BE2 92P","Plate":null,"Lat":49.2885056,"Lon":-123.02359,"Fuel":33,"Address":"385 N BOUNDARY RD"},{"Id":"JTDKDTB36G1138958","Name":"DN7 92K","Plate":null,"Lat":49.28776,"Lon":-123.023865,"Fuel":56,"Address":"3686 ETON ST"},{"Id":"JTDKDTB37H1598762","Name":"EV0 04C","Plate":null,"Lat":49.3098145,"Lon":-123.041672,"Fuel":23,"Address":"400 BROOKSBANK AVE"},{"Id":"JTDKDTB33G1589068","Name":"DN8 38K","Plate":null,"Lat":49.28556,"Lon":-123.023651,"Fuel":51,"Address":"85 N BOUNDARY RD"},{"Id":"JTDKDTB39G1589060","Name":"DN8 14K","Plate":null,"Lat":49.28548,"Lon":-123.023643,"Fuel":85,"Address":"85 N BOUNDARY RD"},{"Id":"JTDKDTB39F1102986","Name":"BE2 74P","Plate":null,"Lat":49.28202,"Lon":-123.023987,"Fuel":81,"Address":"3675 FRANKLIN ST"},{"Id":"JTDKDTB35G1589119","Name":"DN8 90K","Plate":null,"Lat":49.2544327,"Lon":-123.003693,"Fuel":39,"Address":"0 "},{"Id":"JTDKDTB36G1123604","Name":"CR2 17N","Plate":null,"Lat":49.25444,"Lon":-123.003761,"Fuel":85,"Address":"0 "},{"Id":"JTDKDTB35G1138787","Name":"DN7 73K","Plate":null,"Lat":49.25441,"Lon":-123.003746,"Fuel":13,"Address":"0 "},{"Id":"JTDKDTB39F1101532","Name":"BE2 62P","Plate":null,"Lat":49.28942,"Lon":-123.030266,"Fuel":85,"Address":"3399 BRIDGEWAY ST"},{"Id":"JTDKDTB37F1110391","Name":"BV2 93D","Plate":null,"Lat":49.25424,"Lon":-123.003746,"Fuel":27,"Address":"0 "},{"Id":"JTDKDTB32E1079436","Name":"AE2 59K","Plate":null,"Lat":49.28203,"Lon":-123.024788,"Fuel":72,"Address":"3635 FRANKLIN ST"},{"Id":"JTDKDTB38G1125600","Name":"CR2 41N","Plate":null,"Lat":49.2543526,"Lon":-123.003906,"Fuel":85,"Address":"0 "},{"Id":"JTDKDTB30F1099850","Name":"BE2 89P","Plate":null,"Lat":49.28023,"Lon":-123.024033,"Fuel":85,"Address":"3685 E PENDER ST"},{"Id":"JTDKDTB32J1599548","Name":"FK0 78L","Plate":null,"Lat":49.2817039,"Lon":-123.025642,"Fuel":67,"Address":"336 KOOTENAY ST"},{"Id":"JTDKDTB31E1570533","Name":"AE1 89K","Plate":null,"Lat":49.2791,"Lon":-123.024353,"Fuel":66,"Address":"3664 TURNER ST"},{"Id":"JTDKDTB34G1138165","Name":"DN6 79K","Plate":null,"Lat":49.32962,"Lon":-123.062965,"Fuel":40,"Address":"2245 RIDGEWAY AVE"},{"Id":"JTDKDTB3XG1118650","Name":"CH5 91A","Plate":null,"Lat":49.282383,"Lon":-123.028259,"Fuel":60,"Address":"264 SKEENA ST"},{"Id":"JTDKDTB35E1079432","Name":"AE2 22K","Plate":null,"Lat":49.278492,"Lon":-123.025742,"Fuel":71,"Address":"676 KOOTENAY ST"},{"Id":"JTDKDTB38G1138265","Name":"DN7 20K","Plate":null,"Lat":49.3266678,"Lon":-123.062904,"Fuel":85,"Address":"1936 RIDGEWAY AVE"},{"Id":"JTDKDTB39F1099779","Name":"BE2 95P","Plate":null,"Lat":49.27498,"Lon":-123.024048,"Fuel":84,"Address":"3698 NAPIER ST"},{"Id":"JTDKDTB38G1138444","Name":"DN7 13K","Plate":null,"Lat":49.2802238,"Lon":-123.028564,"Fuel":30,"Address":"3495 E PENDER ST"},{"Id":"JTDKDTB37G1126639","Name":"CR2 34N","Plate":null,"Lat":49.3261681,"Lon":-123.063332,"Fuel":48,"Address":"356 19TH ST E"},{"Id":"JTDKDTB30E1079628","Name":"AE2 02K","Plate":null,"Lat":49.2783,"Lon":-123.027405,"Fuel":19,"Address":"3525 E GEORGIA ST"},{"Id":"JTDKDTB32E1066962","Name":"229 MNE","Plate":null,"Lat":49.37293,"Lon":-123.099487,"Fuel":66,"Address":"5909 NANCY GREENE WAY"},{"Id":"JTDKDTB30G1118978","Name":"CH6 47A","Plate":null,"Lat":49.2729721,"Lon":-123.023788,"Fuel":34,"Address":"1325 BOUNDARY RD"},{"Id":"JTDKDTB39G1119272","Name":"CH6 86A","Plate":null,"Lat":49.27316,"Lon":-123.024132,"Fuel":36,"Address":"3645 CHARLES ST"},{"Id":"JTDKDTB37G1126219","Name":"CR2 33N","Plate":null,"Lat":49.2741966,"Lon":-123.024933,"Fuel":83,"Address":"3667 WILLIAM ST"},{"Id":"JTDKDTB37E1570570","Name":"AE1 21K","Plate":null,"Lat":49.37295,"Lon":-123.099762,"Fuel":36,"Address":"5909 NANCY GREENE WAY"},{"Id":"JTDKDTB37E1079187","Name":"AE1 05K","Plate":null,"Lat":49.3713341,"Lon":-123.09861,"Fuel":66,"Address":"5909 NANCY GREENE WAY"},{"Id":"JTDKDTB37H1598793","Name":"EV0 43C","Plate":null,"Lat":49.27241,"Lon":-123.023788,"Fuel":55,"Address":"1365 BOUNDARY RD"},{"Id":"JTDKDTB32H1598250","Name":"EV0 47B","Plate":null,"Lat":49.27237,"Lon":-123.023796,"Fuel":85,"Address":"1365 BOUNDARY RD"},{"Id":"JTDKDTB36H1597876","Name":"EV0 32B","Plate":null,"Lat":49.3705444,"Lon":-123.098175,"Fuel":85,"Address":"5956 NANCY GREENE WAY"},{"Id":"JTDKDTB32H1597938","Name":"EV0 15B","Plate":null,"Lat":49.2802658,"Lon":-123.029816,"Fuel":25,"Address":"3439 E PENDER ST"},{"Id":"JTDKDTB37J1611547","Name":"FS7 45K","Plate":null,"Lat":49.3708725,"Lon":-123.09848,"Fuel":43,"Address":"5909 NANCY GREENE WAY"},{"Id":"JTDKDTB38G1126486","Name":"CR2 79N","Plate":null,"Lat":49.37183,"Lon":-123.099289,"Fuel":85,"Address":"5956 NANCY GREENE WAY"},{"Id":"JTDKDTB38J1600797","Name":"EF9 18D","Plate":null,"Lat":49.37194,"Lon":-123.09938,"Fuel":55,"Address":"5956 NANCY GREENE WAY"},{"Id":"JTDKDTB39G1117537","Name":"CH5 66A","Plate":null,"Lat":49.27315,"Lon":-123.024666,"Fuel":31,"Address":"3645 CHARLES ST"},{"Id":"JTDKDTB32G1127889","Name":"CR2 89N","Plate":null,"Lat":49.2790451,"Lon":-123.029411,"Fuel":50,"Address":"3470 TURNER ST"},{"Id":"JTDKDTB31F1101086","Name":"BE2 84P","Plate":null,"Lat":49.27091,"Lon":-123.023788,"Fuel":75,"Address":"1595 BOUNDARY RD"},{"Id":"JTDKDTB39E1570683","Name":"AE0 85K","Plate":null,"Lat":49.270607,"Lon":-123.023773,"Fuel":34,"Address":"1595 BOUNDARY RD"},{"Id":"JTDKDTB35F1100474","Name":"BE2 85P","Plate":null,"Lat":49.26669,"Lon":-123.024323,"Fuel":50,"Address":"3636 E 4TH AVE"},{"Id":"JTDKDTB39G1138145","Name":"DN7 19K","Plate":null,"Lat":49.3168144,"Lon":-123.065475,"Fuel":85,"Address":"315 10TH ST E"},{"Id":"JTDKDTB39H1598472","Name":"EV0 19C","Plate":null,"Lat":49.26845,"Lon":-123.030029,"Fuel":54,"Address":"3434 E 2ND AVE"},{"Id":"JTDKDTB32G1589191","Name":"DN9 19K","Plate":null,"Lat":49.2918472,"Lon":-123.047752,"Fuel":83,"Address":"2799 WALL ST"},{"Id":"JTDKDTB33G1126556","Name":"CR2 12N","Plate":null,"Lat":49.330265,"Lon":-123.077179,"Fuel":31,"Address":"240 23RD ST W"},{"Id":"JTDKDTB31E1570886","Name":"AE1 94K","Plate":null,"Lat":49.2684441,"Lon":-123.030724,"Fuel":68,"Address":"3402 E 2ND AVE"},{"Id":"JTDKDTB30G1589044","Name":"DN8 71K","Plate":null,"Lat":49.2252464,"Lon":-122.998726,"Fuel":83,"Address":"0 "},{"Id":"JTDKDTB34G1119647","Name":"CH6 52A","Plate":null,"Lat":49.22514,"Lon":-122.9988,"Fuel":58,"Address":"0 "},{"Id":"JTDKDTB35H1598100","Name":"EV0 94A","Plate":null,"Lat":49.27499,"Lon":-123.0364,"Fuel":52,"Address":"1051 WINDERMERE ST"},{"Id":"JTDKDTB31G1138205","Name":"DN6 76K","Plate":null,"Lat":49.2250671,"Lon":-122.998962,"Fuel":52,"Address":"0 "},{"Id":"JTDKDTB33J1609133","Name":"FS7 38K","Plate":null,"Lat":49.2249451,"Lon":-122.999062,"Fuel":67,"Address":"0 "},{"Id":"JTDKDTB31G1117189","Name":"CH5 71A","Plate":null,"Lat":49.2600021,"Lon":-123.02681,"Fuel":71,"Address":"3525 E 11TH AVE"},{"Id":"JTDKDTB32G1118948","Name":"CH6 62A","Plate":null,"Lat":49.3302956,"Lon":-123.080055,"Fuel":36,"Address":"355 23RD ST W"},{"Id":"JTDKDTB31G1118200","Name":"CH6 36A","Plate":null,"Lat":49.3313675,"Lon":-123.082016,"Fuel":84,"Address":"417 24TH ST W"},{"Id":"JTDKDTB37J1609085","Name":"FS7 36K","Plate":null,"Lat":49.284462,"Lon":-123.046638,"Fuel":14,"Address":"11 KASLO ST"},{"Id":"JTDKDTB33E1570923","Name":"AE1 37K","Plate":null,"Lat":49.2542267,"Lon":-123.024231,"Fuel":52,"Address":"3641 E 18TH AVE"},{"Id":"JTDKDTB32G1589207","Name":"DN9 07K","Plate":null,"Lat":49.25421,"Lon":-123.024307,"Fuel":58,"Address":"3628 E 18TH AVE"},{"Id":"JTDKDTB31H1597865","Name":"EV0 41A","Plate":null,"Lat":49.3121643,"Lon":-123.068726,"Fuel":83,"Address":"313 5TH ST E"},{"Id":"JTDKDTB38E1079957","Name":"AE2 53K","Plate":null,"Lat":49.310524,"Lon":-123.06765,"Fuel":19,"Address":"366 4TH ST E"},{"Id":"JTDKDTB38G1138086","Name":"DN6 82K","Plate":null,"Lat":49.262928,"Lon":-123.03244,"Fuel":63,"Address":"3326 E 8TH AVE"},{"Id":"JTDKDTB34G1138182","Name":"DN6 80K","Plate":null,"Lat":49.32524,"Lon":-123.07972,"Fuel":68,"Address":"322 18TH ST W"},{"Id":"JTDKDTB39H1598620","Name":"EV0 08C","Plate":null,"Lat":49.2628975,"Lon":-123.032623,"Fuel":85,"Address":"3320 E 8TH AVE"},{"Id":"JTDKDTB31G1138849","Name":"DN7 61K","Plate":null,"Lat":49.2514572,"Lon":-123.02433,"Fuel":25,"Address":"3688 NORMANDY DR"},{"Id":"JTDKDTB34G1138702","Name":"DN8 04K","Plate":null,"Lat":49.25731,"Lon":-123.029137,"Fuel":83,"Address":"3476 MATAPAN CRES"},{"Id":"JTDKDTB34H1597911","Name":"EV0 19B","Plate":null,"Lat":49.2588272,"Lon":-123.030937,"Fuel":30,"Address":"2828 NATAL ST"},{"Id":"JTDKDTB32G1118206","Name":"CH6 59A","Plate":null,"Lat":49.2655754,"Lon":-123.036476,"Fuel":81,"Address":"2116 WINDERMERE ST"},{"Id":"JTDKDTB30H1598425","Name":"EV0 53B","Plate":null,"Lat":49.31346,"Lon":-123.072708,"Fuel":29,"Address":"448 ST GEORGES AVE"},{"Id":"JTDKDTB30H1598604","Name":"EV0 24C","Plate":null,"Lat":49.31226,"Lon":-123.071854,"Fuel":85,"Address":"233 4TH ST E"},{"Id":"JTDKDTB35G1589069","Name":"FS7 28K","Plate":null,"Lat":49.331398,"Lon":-123.086571,"Fuel":25,"Address":"526 24TH ST W"},{"Id":"JTDKDTB31F1102755","Name":"BE3 23P","Plate":null,"Lat":49.2649078,"Lon":-123.036423,"Fuel":22,"Address":"2188 WINDERMERE ST"},{"Id":"JTDKDTB35E1570485","Name":"AE2 31K","Plate":null,"Lat":49.25353,"Lon":-123.028572,"Fuel":38,"Address":"3426 WORTHINGTON DR"},{"Id":"JTDKDTB38G1119571","Name":"CH6 76A","Plate":null,"Lat":49.2659149,"Lon":-123.038948,"Fuel":17,"Address":"2080 LILLOOET ST"},{"Id":"JTDKDTB34E1079843","Name":"AE1 48K","Plate":null,"Lat":49.26594,"Lon":-123.039055,"Fuel":39,"Address":"2080 LILLOOET ST"},{"Id":"JTDKDTB33G1125939","Name":"CR2 38N","Plate":null,"Lat":49.3159637,"Lon":-123.077469,"Fuel":58,"Address":"160 5TH ST W"},{"Id":"JTDKDTB34G1118420","Name":"CH7 34A","Plate":null,"Lat":49.3284149,"Lon":-123.0872,"Fuel":71,"Address":"540 21ST ST W"},{"Id":"JTDKDTB32F1111867","Name":"BV3 03D","Plate":null,"Lat":49.3103333,"Lon":-123.073944,"Fuel":80,"Address":"235 1ST ST E"},{"Id":"JTDKDTB30G1138311","Name":"DN6 91K","Plate":null,"Lat":49.3089447,"Lon":-123.072952,"Fuel":73,"Address":"95 ST ANDREWS AVE"},{"Id":"JTDKDTB33J1606684","Name":"EF9 23D","Plate":null,"Lat":49.32215,"Lon":-123.083031,"Fuel":69,"Address":"428 15TH ST W"},{"Id":"JTDKDTB34E1570882","Name":"AE1 83K","Plate":null,"Lat":49.2524834,"Lon":-123.031029,"Fuel":79,"Address":"3402 MONS DR"},{"Id":"JTDKDTB33E1570968","Name":"AE1 39K","Plate":null,"Lat":49.31088,"Lon":-123.076149,"Fuel":46,"Address":"153 1ST ST E"},{"Id":"JTDKDTB34E1079308","Name":"AE1 42K","Plate":null,"Lat":49.2754326,"Lon":-123.049461,"Fuel":80,"Address":"1023 SLOCAN ST"},{"Id":"JTDKDTB30H1597808","Name":"EV0 12A","Plate":null,"Lat":49.25396,"Lon":-123.033669,"Fuel":85,"Address":"3422 RUPERT ST"},{"Id":"JTDKDTB38H1598043","Name":"EV0 98A","Plate":null,"Lat":49.3097725,"Lon":-123.075935,"Fuel":76,"Address":"214 ESPLANADE AVE E"},{"Id":"JTDKDTB36G1117740","Name":"CH7 01A","Plate":null,"Lat":49.3097763,"Lon":-123.075943,"Fuel":64,"Address":"214 ESPLANADE AVE E"},{"Id":"JTDKDTB33E1079963","Name":"AE3 11K","Plate":null,"Lat":49.2746468,"Lon":-123.049454,"Fuel":84,"Address":"1160 SLOCAN ST"},{"Id":"JTDKDTB39G1138601","Name":"DN7 83K","Plate":null,"Lat":49.3163567,"Lon":-123.081017,"Fuel":84,"Address":"251 4TH ST W"},{"Id":"JTDKDTB39E1080275","Name":"AE0 79K","Plate":null,"Lat":49.3311272,"Lon":-123.093513,"Fuel":33,"Address":"765 23RD ST W"},{"Id":"JTDKDTB36G1127104","Name":"CR3 41N","Plate":null,"Lat":49.3310966,"Lon":-123.093636,"Fuel":85,"Address":"774 23RD ST W"},{"Id":"JTDKDTB32F1100786","Name":"BE2 54P","Plate":null,"Lat":49.33107,"Lon":-123.093758,"Fuel":42,"Address":"783 23RD ST W"},{"Id":"JTDKDTB31E1571083","Name":"AE2 55K","Plate":null,"Lat":49.2540054,"Lon":-123.03582,"Fuel":85,"Address":"3233 E 18TH AVE"},{"Id":"JTDKDTB39F1111123","Name":"BV2 89D","Plate":null,"Lat":49.26667,"Lon":-123.045547,"Fuel":26,"Address":"2860 E 4TH AVE"},{"Id":"JTDKDTB35H1597416","Name":"EV0 67A","Plate":null,"Lat":49.2522774,"Lon":-123.035988,"Fuel":85,"Address":"3225 E 20TH AVE"},{"Id":"JTDKDTB37E1570374","Name":"AE1 16K","Plate":null,"Lat":49.2416344,"Lon":-123.028175,"Fuel":50,"Address":"3514 PRICE ST"},{"Id":"JTDKDTB3XG1589178","Name":"DN9 00K","Plate":null,"Lat":49.2420273,"Lon":-123.02932,"Fuel":58,"Address":"3495 PRICE ST"},{"Id":"JTDKDTB37J1611242","Name":"FS7 44K","Plate":null,"Lat":49.2352943,"Lon":-123.024406,"Fuel":46,"Address":"3679 VANNESS AVE"},{"Id":"JTDKDTB32F1101808","Name":"BE3 10P","Plate":null,"Lat":49.3275528,"Lon":-123.094185,"Fuel":75,"Address":"725 20TH ST W"},{"Id":"JTDKDTB34H1597634","Name":"EV0 17A","Plate":null,"Lat":49.24759,"Lon":-123.033943,"Fuel":43,"Address":"4121 RUPERT ST"},{"Id":"JTDKDTB37G1118816","Name":"CH7 41A","Plate":null,"Lat":49.2815552,"Lon":-123.0597,"Fuel":77,"Address":"360 TEMPLETON DR"},{"Id":"JTDKDTB34J1601011","Name":"FK0 77L","Plate":null,"Lat":49.3274879,"Lon":-123.094566,"Fuel":46,"Address":"733 20TH ST W"},{"Id":"JTDKDTB33E1570615","Name":"AE1 30K","Plate":null,"Lat":49.3275375,"Lon":-123.095062,"Fuel":64,"Address":"749 20TH ST W"},{"Id":"JTDKDTB32E1080344","Name":"AE2 65K","Plate":null,"Lat":49.2609062,"Lon":-123.044792,"Fuel":84,"Address":"2895 E 10TH AVE"},{"Id":"JTDKDTB33G1118988","Name":"CH6 66A","Plate":null,"Lat":49.26088,"Lon":-123.044914,"Fuel":64,"Address":"2884 E 10TH AVE"},{"Id":"JTDKDTB30G1118382","Name":"CH5 88A","Plate":null,"Lat":49.23564,"Lon":-123.026093,"Fuel":66,"Address":"3660 VANNESS AVE"},{"Id":"JTDKDTB33F1111781","Name":"BV2 90D","Plate":null,"Lat":49.32227,"Lon":-123.092049,"Fuel":66,"Address":"717 15TH ST W"},{"Id":"JTDKDTB30H1598182","Name":"EV0 14B","Plate":null,"Lat":49.26278,"Lon":-123.047104,"Fuel":40,"Address":"2412 KASLO ST"},{"Id":"JTDKDTB31J1599315","Name":"EF9 15D","Plate":null,"Lat":49.27746,"Lon":-123.058273,"Fuel":80,"Address":"2288 ADANAC ST"},{"Id":"JTDKDTB34G1117185","Name":"CH5 67A","Plate":null,"Lat":49.2629433,"Lon":-123.04776,"Fuel":69,"Address":"2763 E 8TH AVE"},{"Id":"JTDKDTB36E1570625","Name":"AE1 54K","Plate":null,"Lat":49.32751,"Lon":-123.097069,"Fuel":18,"Address":"838 20TH ST W"},{"Id":"JTDKDTB31G1116995","Name":"CH5 65A","Plate":null,"Lat":49.32844,"Lon":-123.0978,"Fuel":85,"Address":"2040 HAMILTON AVE"},{"Id":"JTDKDTB34F1103270","Name":"BE2 76P","Plate":null,"Lat":49.25146,"Lon":-123.039925,"Fuel":80,"Address":"3068 E 21ST AVE"},{"Id":"JTDKDTB39F1100431","Name":"BE3 15P","Plate":null,"Lat":49.2562828,"Lon":-123.043785,"Fuel":73,"Address":"2906 E 15TH AVE"},{"Id":"JTDKDTB36G1589002","Name":"DN8 51K","Plate":null,"Lat":49.2518463,"Lon":-123.041557,"Fuel":84,"Address":"3664 NOOTKA ST"},{"Id":"JTDKDTB31E1080061","Name":"AE3 17K","Plate":null,"Lat":49.2552452,"Lon":-123.044266,"Fuel":64,"Address":"3209 RENFREW ST"},{"Id":"JTDKDTB35F1101835","Name":"BE3 20P","Plate":null,"Lat":49.23118,"Lon":-123.026505,"Fuel":84,"Address":"5838 LINCOLN ST"},{"Id":"JTDKDTB33H1596443","Name":"EF9 10D","Plate":null,"Lat":49.2717133,"Lon":-123.058044,"Fuel":23,"Address":"1443 GARDEN DR"},{"Id":"JTDKDTB36E1570835","Name":"AE1 03K","Plate":null,"Lat":49.3207664,"Lon":-123.095284,"Fuel":22,"Address":"290 FELL AVE"},{"Id":"JTDKDTB34E1570347","Name":"AE1 76K","Plate":null,"Lat":49.3240471,"Lon":-123.098534,"Fuel":54,"Address":"815 TOBRUCK AVE"},{"Id":"JTDKDTB34H1597892","Name":"EV0 34B","Plate":null,"Lat":49.2252541,"Lon":-123.024345,"Fuel":29,"Address":"3674 E 48TH AVE"},{"Id":"JTDKDTB37G1589056","Name":"DN8 54K","Plate":null,"Lat":49.27211,"Lon":-123.060196,"Fuel":72,"Address":"2180 KITCHENER ST"},{"Id":"JTDKDTB32E1080134","Name":"AE2 62K","Plate":null,"Lat":49.2421722,"Lon":-123.03772,"Fuel":47,"Address":"4762 REID ST"},{"Id":"JTDKDTB31F1103436","Name":"BE2 73P","Plate":null,"Lat":49.272995,"Lon":-123.06105,"Fuel":85,"Address":"2130 CHARLES ST"},{"Id":"JTDKDTB3XG1138770","Name":"DN7 25K","Plate":null,"Lat":49.32354,"Lon":-123.099586,"Fuel":51,"Address":"1620 HAMILTON AVE"},{"Id":"JTDKDTB31G1118293","Name":"CH6 18A","Plate":null,"Lat":49.27044,"Lon":-123.059715,"Fuel":35,"Address":"2206 GRAVELEY ST"},{"Id":"JTDKDTB31G1138284","Name":"DN7 55K","Plate":null,"Lat":49.2737541,"Lon":-123.062813,"Fuel":25,"Address":"2061 WILLIAM ST"},{"Id":"JTDKDTB34G1118028","Name":"CH7 26A","Plate":null,"Lat":49.27166,"Lon":-123.061852,"Fuel":85,"Address":"1426 LAKEWOOD DR"},{"Id":"JTDKDTB36G1138376","Name":"DN7 66K","Plate":null,"Lat":49.25504,"Lon":-123.049522,"Fuel":85,"Address":"3220 SLOCAN ST"},{"Id":"JTDKDTB38G1118808","Name":"CH7 05A","Plate":null,"Lat":49.24077,"Lon":-123.039009,"Fuel":85,"Address":"4845 CHATHAM ST"},{"Id":"JTDKDTB30G1118236","Name":"CH7 08A","Plate":null,"Lat":49.3158875,"Lon":-123.096046,"Fuel":79,"Address":"861 AUTOMALL DR"},{"Id":"JTDKDTB30G1126201","Name":"CR2 05N","Plate":null,"Lat":49.31341,"Lon":-123.095825,"Fuel":47,"Address":"0 HARBOURSIDE PL"},{"Id":"JTDKDTB3XG1119359","Name":"CH7 04A","Plate":null,"Lat":49.22267,"Lon":-123.027336,"Fuel":85,"Address":"3561 E 49TH AVE"},{"Id":"JTDKDTB30F1103265","Name":"BE3 37P","Plate":null,"Lat":49.25629,"Lon":-123.052948,"Fuel":39,"Address":"3125 PENTICTON ST"},{"Id":"JTDKDTB36E1570611","Name":"AE1 53K","Plate":null,"Lat":49.2252121,"Lon":-123.02961,"Fuel":48,"Address":"3489 E 48TH AVE"},{"Id":"JTDKDTB32J1611164","Name":"FS7 41K","Plate":null,"Lat":49.3205452,"Lon":-123.102242,"Fuel":56,"Address":"0 MACKAY RD"},{"Id":"JTDKDTB32E1570329","Name":"AE2 67K","Plate":null,"Lat":49.23822,"Lon":-123.040016,"Fuel":85,"Address":"5139 RUPERT ST"},{"Id":"JTDKDTB37E1571198","Name":"AE1 26K","Plate":null,"Lat":49.315918,"Lon":-123.099091,"Fuel":85,"Address":"837 AUTOMALL DR"},{"Id":"JTDKDTB39E1570778","Name":"AE0 87K","Plate":null,"Lat":49.2419739,"Lon":-123.043274,"Fuel":72,"Address":"4750 MOSS ST"},{"Id":"JTDKDTB34E1570946","Name":"AE2 74K","Plate":null,"Lat":49.3163147,"Lon":-123.099945,"Fuel":80,"Address":"827 AUTOMALL DR"},{"Id":"JTDKDTB36G1588965","Name":"DN8 12K","Plate":null,"Lat":49.2367172,"Lon":-123.039848,"Fuel":63,"Address":"5267 SPENCER ST"},{"Id":"JTDKDTB39E1079224","Name":"AE0 92K","Plate":null,"Lat":49.26681,"Lon":-123.062813,"Fuel":73,"Address":"2047 E 4TH AVE"},{"Id":"JTDKDTB32G1138911","Name":"DN8 16K","Plate":null,"Lat":49.2244339,"Lon":-123.030861,"Fuel":21,"Address":"3405 E 49TH AVE"},{"Id":"JTDKDTB33H1597740","Name":"EV0 43B","Plate":null,"Lat":49.2397575,"Lon":-123.042732,"Fuel":85,"Address":"4928 KILLARNEY ST"},{"Id":"JTDKDTB37G1119268","Name":"CH6 75A","Plate":null,"Lat":49.2705269,"Lon":-123.066078,"Fuel":21,"Address":"1860 GRAVELEY ST"},{"Id":"JTDKDTB34E1079664","Name":"AE1 47K","Plate":null,"Lat":49.3144531,"Lon":-123.099388,"Fuel":40,"Address":"966 HARBOURSIDE DR"},{"Id":"JTDKDTB36F1101732","Name":"BE3 27P","Plate":null,"Lat":49.22523,"Lon":-123.031937,"Fuel":83,"Address":"3466 E 48TH AVE"},{"Id":"JTDKDTB3XG1138171","Name":"CR2 29N","Plate":null,"Lat":49.31412,"Lon":-123.099518,"Fuel":85,"Address":"972 HARBOURSIDE DR"},{"Id":"JTDKDTB33H1593638","Name":"EF9 06D","Plate":null,"Lat":49.3140945,"Lon":-123.099556,"Fuel":38,"Address":"974 HARBOURSIDE DR"},{"Id":"JTDKDTB33G1138903","Name":"DN7 91K","Plate":null,"Lat":49.3140755,"Lon":-123.099586,"Fuel":69,"Address":"974 HARBOURSIDE DR"},{"Id":"JTDKDTB36F1100760","Name":"BE2 94P","Plate":null,"Lat":49.2514038,"Lon":-123.052193,"Fuel":31,"Address":"3722 PENTICTON ST"},{"Id":"JTDKDTB34H1598671","Name":"EV0 01C","Plate":null,"Lat":49.3140068,"Lon":-123.099586,"Fuel":62,"Address":"974 HARBOURSIDE DR"},{"Id":"JTDKDTB39H1598892","Name":"EV0 49C","Plate":null,"Lat":49.2513542,"Lon":-123.052193,"Fuel":35,"Address":"3728 PENTICTON ST"},{"Id":"JTDKDTB3XG1127199","Name":"CR2 91N","Plate":null,"Lat":49.3139725,"Lon":-123.099625,"Fuel":85,"Address":"976 HARBOURSIDE DR"},{"Id":"JTDKDTB37G1127399","Name":"CR3 16N","Plate":null,"Lat":49.3139877,"Lon":-123.099693,"Fuel":85,"Address":"980 HARBOURSIDE DR"},{"Id":"JTDKDTB31G1138446","Name":"DN7 79K","Plate":null,"Lat":49.31398,"Lon":-123.099808,"Fuel":85,"Address":"984 HARBOURSIDE DR"},{"Id":"JTDKDTB32G1588977","Name":"DN8 62K","Plate":null,"Lat":49.24799,"Lon":-123.050278,"Fuel":84,"Address":"2693 E 25TH AVE"},{"Id":"JTDKDTB33G1589037","Name":"DN8 37K","Plate":null,"Lat":49.2548256,"Lon":-123.05648,"Fuel":81,"Address":"3312 NANAIMO ST"},{"Id":"JTDKDTB34G1118823","Name":"CL2 97F","Plate":null,"Lat":49.2385941,"Lon":-123.044937,"Fuel":72,"Address":"5114 FAIRMONT AVE"},{"Id":"JTDKDTB36F1100273","Name":"BE3 03P","Plate":null,"Lat":49.2737274,"Lon":-123.071541,"Fuel":18,"Address":"1213 COTTON DR"},{"Id":"JTDKDTB36G1125689","Name":"CR2 82N","Plate":null,"Lat":49.2724342,"Lon":-123.071579,"Fuel":48,"Address":"1330 COTTON DR"},{"Id":"JTDKDTB30G1117488","Name":"CH5 57A","Plate":null,"Lat":49.2536,"Lon":-123.060158,"Fuel":79,"Address":"0 "},{"Id":"JTDKDTB38H1597510","Name":"EV0 70A","Plate":null,"Lat":49.2606544,"Lon":-123.06601,"Fuel":17,"Address":"2643 VICTORIA DR"},{"Id":"JTDKDTB37H1598440","Name":"EV0 70B","Plate":null,"Lat":49.25249,"Lon":-123.059975,"Fuel":80,"Address":"2249 E 19TH AVE"},{"Id":"JTDKDTB30G1118155","Name":"CH6 28A","Plate":null,"Lat":49.23923,"Lon":-123.050369,"Fuel":38,"Address":"2684 DUKE ST"},{"Id":"JTDKDTB34G1119275","Name":"CH6 68A","Plate":null,"Lat":49.25656,"Lon":-123.065689,"Fuel":18,"Address":"3121 VICTORIA DR"},{"Id":"JTDKDTB3XH1597699","Name":"EV0 50A","Plate":null,"Lat":49.2563438,"Lon":-123.066147,"Fuel":84,"Address":"1851 E 16TH AVE"},{"Id":"JTDKDTB31G1118682","Name":"CH7 21A","Plate":null,"Lat":49.25597,"Lon":-123.066093,"Fuel":44,"Address":"3215 VICTORIA DR"},{"Id":"JTDKDTB3XG1138929","Name":"DN7 90K","Plate":null,"Lat":49.2385368,"Lon":-123.053055,"Fuel":85,"Address":"5040 CHAMBERS ST"},{"Id":"JTDKDTB33H1597916","Name":"EV0 16B","Plate":null,"Lat":49.26881,"Lon":-123.076073,"Fuel":62,"Address":"1349 E 2ND AVE"},{"Id":"JTDKDTB33G1119221","Name":"CH6 97A","Plate":null,"Lat":49.268795,"Lon":-123.076309,"Fuel":33,"Address":"1344 E 2ND AVE"},{"Id":"JTDKDTB37H1597921","Name":"EV0 95A","Plate":null,"Lat":49.232048,"Lon":-123.050217,"Fuel":69,"Address":"5743 RHODES ST"},{"Id":"JTDKDTB30J1610904","Name":"FS7 40K","Plate":null,"Lat":49.2836227,"Lon":-123.0893,"Fuel":39,"Address":"0 "},{"Id":"JTDKDTB38G1139125","Name":"DN8 22K","Plate":null,"Lat":49.23852,"Lon":-123.055542,"Fuel":85,"Address":"5038 CLARENDON ST"},{"Id":"JTDKDTB39E1570540","Name":"AE0 82K","Plate":null,"Lat":49.2380638,"Lon":-123.055382,"Fuel":84,"Address":"5110 CLARENDON ST"},{"Id":"JTDKDTB39G1125797","Name":"CR2 23N","Plate":null,"Lat":49.2378769,"Lon":-123.05542,"Fuel":36,"Address":"5140 CLARENDON ST"},{"Id":"JTDKDTB33E1079459","Name":"AE3 07K","Plate":null,"Lat":49.261692,"Lon":-123.073708,"Fuel":77,"Address":"2537 WOODLAND DR"},{"Id":"JTDKDTB34G1139073","Name":"DN8 34K","Plate":null,"Lat":49.244194,"Lon":-123.060867,"Fuel":29,"Address":"2208 GALT ST"},{"Id":"JTDKDTB37G1125345","Name":"EF9 02D","Plate":null,"Lat":49.2259064,"Lon":-123.047073,"Fuel":55,"Address":"2822 E 48TH AVE"},{"Id":"JTDKDTB30E1570619","Name":"AE2 09K","Plate":null,"Lat":49.2523232,"Lon":-123.067787,"Fuel":44,"Address":"1810 STAINSBURY AVE"},{"Id":"JTDKDTB38E1570920","Name":"AE2 43K","Plate":null,"Lat":49.2710381,"Lon":-123.082413,"Fuel":22,"Address":"960 EVANS AVE"},{"Id":"JTDKDTB31G1127771","Name":"CR3 47N","Plate":null,"Lat":49.2710724,"Lon":-123.082649,"Fuel":81,"Address":"960 EVANS AVE"},{"Id":"JTDKDTB38E1570366","Name":"AE2 35K","Plate":null,"Lat":49.22904,"Lon":-123.051666,"Fuel":77,"Address":"6008 WALES ST"},{"Id":"JTDKDTB38E1079280","Name":"AE2 47K","Plate":null,"Lat":49.25085,"Lon":-123.068169,"Fuel":39,"Address":"3838 COMMERCIAL ST"},{"Id":"JTDKDTB3XG1119085","Name":"CH7 43A","Plate":null,"Lat":49.24068,"Lon":-123.061188,"Fuel":31,"Address":"2181 MANNERING AVE"},{"Id":"JTDKDTB31G1118911","Name":"CH6 50A","Plate":null,"Lat":49.2348747,"Lon":-123.057182,"Fuel":23,"Address":"2395 E 39TH AVE"},{"Id":"JTDKDTB32E1079288","Name":"AE2 58K","Plate":null,"Lat":49.22753,"Lon":-123.052635,"Fuel":17,"Address":"2673 E 47TH AVE"},{"Id":"JTDKDTB31H1597560","Name":"EV0 39A","Plate":null,"Lat":49.24146,"Lon":-123.064362,"Fuel":39,"Address":"2033 E 32ND AVE"},{"Id":"JTDKDTB38G1139013","Name":"DN7 96K","Plate":null,"Lat":49.2719421,"Lon":-123.087845,"Fuel":77,"Address":"675 EVANS AVE"},{"Id":"JTDKDTB36H1597747","Name":"EV0 33A","Plate":null,"Lat":49.23345,"Lon":-123.058891,"Fuel":69,"Address":"5638 NANAIMO ST"},{"Id":"JTDKDTB39H1598469","Name":"EV0 07C","Plate":null,"Lat":49.26009,"Lon":-123.0794,"Fuel":54,"Address":"1208 E 12TH AVE"},{"Id":"JTDKDTB32G1139198","Name":"DN7 63K","Plate":null,"Lat":49.2721825,"Lon":-123.089325,"Fuel":36,"Address":"680 EVANS AVE"},{"Id":"JTDKDTB30G1125669","Name":"CR2 45N","Plate":null,"Lat":49.26054,"Lon":-123.081169,"Fuel":76,"Address":"2704 GLEN DR"},{"Id":"JTDKDTB34G1589208","Name":"DN9 22K","Plate":null,"Lat":49.25879,"Lon":-123.079849,"Fuel":21,"Address":"1166 E 13TH AVE"},{"Id":"JTDKDTB31G1125888","Name":"CR2 65N","Plate":null,"Lat":49.2381058,"Lon":-123.064331,"Fuel":80,"Address":"2039 E 35TH AVE"},{"Id":"JTDKDTB3XG1126716","Name":"CR2 90N","Plate":null,"Lat":49.2794037,"Lon":-123.096725,"Fuel":59,"Address":"325 KEEFER ST"},{"Id":"JTDKDTB34G1126064","Name":"CR2 20N","Plate":null,"Lat":49.24014,"Lon":-123.067696,"Fuel":46,"Address":"1866 E 33RD AVE"},{"Id":"JTDKDTB36G1138197","Name":"DN7 06K","Plate":null,"Lat":49.229393,"Lon":-123.059616,"Fuel":85,"Address":"2288 E 45TH AVE"},{"Id":"JTDKDTB34G1117283","Name":"CH5 53A","Plate":null,"Lat":49.26065,"Lon":-123.084557,"Fuel":43,"Address":"930 E 11TH AVE"},{"Id":"JTDKDTB37G1139116","Name":"DN7 86K","Plate":null,"Lat":49.2401352,"Lon":-123.069542,"Fuel":68,"Address":"1762 E 33RD AVE"},{"Id":"JTDKDTB33G1117713","Name":"CH6 95A","Plate":null,"Lat":49.2301369,"Lon":-123.062,"Fuel":13,"Address":"5924 GLADSTONE ST"},{"Id":"JTDKDTB37G1127502","Name":"CR3 43N","Plate":null,"Lat":49.25158,"Lon":-123.079971,"Fuel":43,"Address":"3707 INVERNESS ST"},{"Id":"JTDKDTB37F1110200","Name":"BV2 77D","Plate":null,"Lat":49.2335625,"Lon":-123.067177,"Fuel":67,"Address":"1908 E 40TH AVE"},{"Id":"JTDKDTB34E1079423","Name":"FS7 30K","Plate":null,"Lat":49.25718,"Lon":-123.0854,"Fuel":56,"Address":"858 E 15TH AVE"},{"Id":"JTDKDTB35G1119401","Name":"CH6 79A","Plate":null,"Lat":49.2376175,"Lon":-123.070885,"Fuel":84,"Address":"1712 E 36TH AVE"},{"Id":"JTDKDTB38E1571114","Name":"AE1 73K","Plate":null,"Lat":49.270134,"Lon":-123.096085,"Fuel":69,"Address":"401 INDUSTRIAL AVE"},{"Id":"JTDKDTB33H1597463","Name":"EV0 42A","Plate":null,"Lat":49.28392,"Lon":-123.107376,"Fuel":50,"Address":"150 WATER ST"},{"Id":"JTDKDTB38E1570481","Name":"AE2 37K","Plate":null,"Lat":49.2839432,"Lon":-123.1074,"Fuel":64,"Address":"131 WATER ST"},{"Id":"JTDKDTB31G1138110","Name":"DN7 05K","Plate":null,"Lat":49.2839241,"Lon":-123.107468,"Fuel":23,"Address":"131 WATER ST"},{"Id":"JTDKDTB30G1117619","Name":"CH5 95A","Plate":null,"Lat":49.2839432,"Lon":-123.107483,"Fuel":30,"Address":"150 WATER ST"},{"Id":"JTDKDTB34F1111076","Name":"BV2 85D","Plate":null,"Lat":49.2464867,"Lon":-123.079155,"Fuel":85,"Address":"1254 E 27TH AVE"},{"Id":"JTDKDTB3XE1571048","Name":"AE2 89K","Plate":null,"Lat":49.2286949,"Lon":-123.065765,"Fuel":23,"Address":"6109 VICTORIA DR"},{"Id":"JTDKDTB35E1080211","Name":"AE2 27K","Plate":null,"Lat":49.2839622,"Lon":-123.107582,"Fuel":39,"Address":"131 WATER ST"},{"Id":"JTDKDTB39F1100509","Name":"BE3 14P","Plate":null,"Lat":49.22859,"Lon":-123.065796,"Fuel":29,"Address":"6110 VICTORIA DR"},{"Id":"JTDKDTB31G1117323","Name":"CH5 55A","Plate":null,"Lat":49.2839661,"Lon":-123.107857,"Fuel":21,"Address":"150 WATER ST"},{"Id":"JTDKDTB31G1117340","Name":"CH5 70A","Plate":null,"Lat":49.2839355,"Lon":-123.107857,"Fuel":60,"Address":"150 WATER ST"},{"Id":"JTDKDTB34G1126226","Name":"CR2 74N","Plate":null,"Lat":49.22823,"Lon":-123.065765,"Fuel":81,"Address":"6151 VICTORIA DR"},{"Id":"JTDKDTB3XE1570563","Name":"AE2 88K","Plate":null,"Lat":49.2838631,"Lon":-123.107864,"Fuel":18,"Address":"0 TROUNCE ALY"},{"Id":"JTDKDTB3XH1598710","Name":"EV0 22C","Plate":null,"Lat":49.28389,"Lon":-123.107918,"Fuel":85,"Address":"0 TROUNCE ALY"},{"Id":"JTDKDTB30E1065230","Name":"230 MNE","Plate":null,"Lat":49.2838821,"Lon":-123.107941,"Fuel":21,"Address":"0 TROUNCE ALY"},{"Id":"JTDKDTB3XG1589214","Name":"DN9 01K","Plate":null,"Lat":49.24642,"Lon":-123.079666,"Fuel":51,"Address":"1219 E 27TH AVE"},{"Id":"JTDKDTB34G1126274","Name":"CR2 24N","Plate":null,"Lat":49.22802,"Lon":-123.065781,"Fuel":68,"Address":"6156 VICTORIA DR"},{"Id":"JTDKDTB35J1611126","Name":"FS7 42K","Plate":null,"Lat":49.2588158,"Lon":-123.0895,"Fuel":68,"Address":"663 E 13TH AVE"},{"Id":"JTDKDTB34G1117039","Name":"CH5 62A","Plate":null,"Lat":49.2267265,"Lon":-123.065941,"Fuel":35,"Address":"6342 VICTORIA DR"},{"Id":"JTDKDTB35F1103147","Name":"BE3 11P","Plate":null,"Lat":49.2571259,"Lon":-123.08918,"Fuel":75,"Address":"710 E 15TH AVE"},{"Id":"JTDKDTB35F1111054","Name":"BV2 94D","Plate":null,"Lat":49.226017,"Lon":-123.066078,"Fuel":71,"Address":"6446 VICTORIA DR"},{"Id":"JTDKDTB33E1079090","Name":"AE3 02K","Plate":null,"Lat":49.2276649,"Lon":-123.067581,"Fuel":69,"Address":"1855 E 47TH AVE"},{"Id":"JTDKDTB39G1117778","Name":"CH6 41A","Plate":null,"Lat":49.2579041,"Lon":-123.09053,"Fuel":84,"Address":"623 E 14TH AVE"},{"Id":"JTDKDTB3XG1124853","Name":"CR2 00N","Plate":null,"Lat":49.26157,"Lon":-123.093369,"Fuel":58,"Address":"476 E 10TH AVE"},{"Id":"JTDKDTB39H1597564","Name":"EV0 49A","Plate":null,"Lat":49.2582779,"Lon":-123.091179,"Fuel":72,"Address":"2948 CAROLINA ST"},{"Id":"JTDKDTB3XH1597587","Name":"EV0 26B","Plate":null,"Lat":49.26563,"Lon":-123.096962,"Fuel":42,"Address":"2150 BRUNSWICK ST"},{"Id":"JTDKDTB3XG1125663","Name":"CR2 28N","Plate":null,"Lat":49.2711143,"Lon":-123.101791,"Fuel":73,"Address":"1650 QUEBEC ST"},{"Id":"JTDKDTB37G1138709","Name":"DN7 32K","Plate":null,"Lat":49.23455,"Lon":-123.074226,"Fuel":81,"Address":"5515 DUMFRIES ST"},{"Id":"JTDKDTB33F1102885","Name":"BE3 26P","Plate":null,"Lat":49.257,"Lon":-123.091774,"Fuel":77,"Address":"3132 CAROLINA ST"},{"Id":"JTDKDTB34E1570817","Name":"AE1 82K","Plate":null,"Lat":49.25728,"Lon":-123.093292,"Fuel":13,"Address":"512 E 15TH AVE"},{"Id":"JTDKDTB34H1597732","Name":"EV0 44B","Plate":null,"Lat":49.2362976,"Lon":-123.077614,"Fuel":36,"Address":"5310 CULLODEN ST"},{"Id":"JTDKDTB30F1110992","Name":"BV2 81D","Plate":null,"Lat":49.268528,"Lon":-123.102654,"Fuel":69,"Address":"1873 QUEBEC ST"},{"Id":"JTDKDTB34G1589175","Name":"DN9 02K","Plate":null,"Lat":49.2368279,"Lon":-123.078873,"Fuel":72,"Address":"5311 CULLODEN ST"},{"Id":"JTDKDTB35G1139194","Name":"DN7 64K","Plate":null,"Lat":49.2893143,"Lon":-123.118813,"Fuel":58,"Address":"216 THURLOW ST"},{"Id":"JTDKDTB31G1117984","Name":"CH6 08A","Plate":null,"Lat":49.28932,"Lon":-123.118835,"Fuel":72,"Address":"216 THURLOW ST"},{"Id":"JTDKDTB38G1125970","Name":"CR2 69N","Plate":null,"Lat":49.2891,"Lon":-123.118782,"Fuel":69,"Address":"216 THURLOW ST"},{"Id":"JTDKDTB35F1112611","Name":"BV3 17D","Plate":null,"Lat":49.28934,"Lon":-123.119034,"Fuel":51,"Address":"216 THURLOW ST"},{"Id":"JTDKDTB37H1597630","Name":"EV0 20A","Plate":null,"Lat":49.2854767,"Lon":-123.118767,"Fuel":34,"Address":"0 DUNSMUIR ST"},{"Id":"JTDKDTB37G1138595","Name":"DN7 50K","Plate":null,"Lat":49.28548,"Lon":-123.118813,"Fuel":85,"Address":"0 DUNSMUIR ST"},{"Id":"JTDKDTB39H1598827","Name":"EV0 45C","Plate":null,"Lat":49.2835045,"Lon":-123.117424,"Fuel":15,"Address":"0 DUNSMUIR ST"},{"Id":"JTDKDTB37E1570634","Name":"AE1 22K","Plate":null,"Lat":49.243248,"Lon":-123.087433,"Fuel":64,"Address":"826 E 30TH AVE"},{"Id":"JTDKDTB3XG1588984","Name":"DN8 59K","Plate":null,"Lat":49.28337,"Lon":-123.118217,"Fuel":40,"Address":"667 HOWE ST"},{"Id":"JTDKDTB32H1598751","Name":"EV0 92B","Plate":null,"Lat":49.2834625,"Lon":-123.118294,"Fuel":85,"Address":"667 HOWE ST"},{"Id":"JTDKDTB34F1111417","Name":"BV3 05D","Plate":null,"Lat":49.283226,"Lon":-123.118118,"Fuel":75,"Address":"667 HOWE ST"},{"Id":"JTDKDTB33E1571201","Name":"AE2 73K","Plate":null,"Lat":49.283226,"Lon":-123.11821,"Fuel":66,"Address":"667 HOWE ST"},{"Id":"JTDKDTB33G1118604","Name":"CH6 19A","Plate":null,"Lat":49.2831879,"Lon":-123.118263,"Fuel":85,"Address":"667 HOWE ST"},{"Id":"JTDKDTB32H1598782","Name":"EV0 13C","Plate":null,"Lat":49.2274437,"Lon":-123.077919,"Fuel":19,"Address":"1396 E 47TH AVE"},{"Id":"JTDKDTB37F1111380","Name":"BV3 13D","Plate":null,"Lat":49.2377167,"Lon":-123.085777,"Fuel":48,"Address":"5204 SOMERVILLE ST"},{"Id":"JTDKDTB38F1111324","Name":"BV2 79D","Plate":null,"Lat":49.24805,"Lon":-123.094154,"Fuel":81,"Address":"4147 ST GEORGE ST"},{"Id":"JTDKDTB39G1589124","Name":"DN8 94K","Plate":null,"Lat":49.2260437,"Lon":-123.078,"Fuel":85,"Address":"6431 KNIGHT ST"},{"Id":"JTDKDTB37G1589137","Name":"DN8 79K","Plate":null,"Lat":49.2556343,"Lon":-123.100441,"Fuel":85,"Address":"3310 WATSON ST"},{"Id":"JTDKDTB34H1598153","Name":"EV0 22B","Plate":null,"Lat":49.2484932,"Lon":-123.0968,"Fuel":75,"Address":"4110 PRINCE EDWARD ST"},{"Id":"JTDKDTB32G1589014","Name":"DN8 63K","Plate":null,"Lat":49.2511368,"Lon":-123.099937,"Fuel":50,"Address":"245 E 22ND AVE"},{"Id":"JTDKDTB31E1570466","Name":"AE1 88K","Plate":null,"Lat":49.2597961,"Lon":-123.106918,"Fuel":59,"Address":"2880 MANITOBA ST"},{"Id":"JTDKDTB34H1597990","Name":"EV0 92A","Plate":null,"Lat":49.22537,"Lon":-123.083015,"Fuel":84,"Address":"1096 E 49TH AVE"},{"Id":"JTDKDTB31G1127334","Name":"CR3 46N","Plate":null,"Lat":49.24623,"Lon":-123.099152,"Fuel":39,"Address":"4341 SOPHIA ST"},{"Id":"JTDKDTB33G1138609","Name":"DN7 27K","Plate":null,"Lat":49.2457047,"Lon":-123.099358,"Fuel":85,"Address":"297 E 28TH AVE"},{"Id":"JTDKDTB32G1118416","Name":"CH6 39A","Plate":null,"Lat":49.2453537,"Lon":-123.099876,"Fuel":60,"Address":"4424 WALDEN ST"},{"Id":"JTDKDTB30H1597467","Name":"EV0 38A","Plate":null,"Lat":49.24798,"Lon":-123.101974,"Fuel":42,"Address":"179 E 26TH AVE"},{"Id":"JTDKDTB32E1571030","Name":"AE2 69K","Plate":null,"Lat":49.24103,"Lon":-123.096962,"Fuel":39,"Address":"4875 PRINCE EDWARD ST"},{"Id":"JTDKDTB30H1597906","Name":"EV0 01B","Plate":null,"Lat":49.24489,"Lon":-123.099892,"Fuel":67,"Address":"4468 WALDEN ST"},{"Id":"JTDKDTB34G1126355","Name":"CR2 75N","Plate":null,"Lat":49.2499237,"Lon":-123.103767,"Fuel":81,"Address":"61 E 23RD AVE"},{"Id":"JTDKDTB35G1589203","Name":"DN9 13K","Plate":null,"Lat":49.2870445,"Lon":-123.132996,"Fuel":54,"Address":"1460 BARCLAY ST"},{"Id":"JTDKDTB33H1598015","Name":"EV0 06B","Plate":null,"Lat":49.246,"Lon":-123.103615,"Fuel":60,"Address":"119 E 28TH AVE"},{"Id":"JTDKDTB37G1127659","Name":"CL3 81J","Plate":null,"Lat":49.2853241,"Lon":-123.133507,"Fuel":59,"Address":"1019 BROUGHTON ST"},{"Id":"JTDKDTB39G1125945","Name":"CR2 31N","Plate":null,"Lat":49.2475128,"Lon":-123.10511,"Fuel":52,"Address":"4278 ONTARIO ST"},{"Id":"JTDKDTB30E1079323","Name":"AE2 94K","Plate":null,"Lat":49.24407,"Lon":-123.102722,"Fuel":29,"Address":"4539 QUEBEC ST"},{"Id":"JTDKDTB31G1119248","Name":"CH6 61A","Plate":null,"Lat":49.2433968,"Lon":-123.103653,"Fuel":85,"Address":"85 E 30TH AVE"},{"Id":"JTDKDTB30H1597968","Name":"EV0 82A","Plate":null,"Lat":49.25684,"Lon":-123.113892,"Fuel":79,"Address":"460 W 16TH AVE"},{"Id":"JTDKDTB32G1118657","Name":"CH7 23A","Plate":null,"Lat":49.2462,"Lon":-123.108475,"Fuel":33,"Address":"4363 DINMONT AVE"},{"Id":"JTDKDTB34G1589158","Name":"DN9 09K","Plate":null,"Lat":49.240654,"Lon":-123.104446,"Fuel":64,"Address":"39 E 33RD AVE"},{"Id":"JTDKDTB34G1589192","Name":"DN9 21K","Plate":null,"Lat":49.22642,"Lon":-123.094078,"Fuel":71,"Address":"6449 ST GEORGE ST"},{"Id":"JTDKDTB37H1596865","Name":"EF9 11D","Plate":null,"Lat":49.2301369,"Lon":-123.096939,"Fuel":43,"Address":"407 E 44TH AVE"},{"Id":"JTDKDTB34E1570638","Name":"AE1 80K","Plate":null,"Lat":49.2458458,"Lon":-123.109451,"Fuel":72,"Address":"4418 DINMONT AVE"},{"Id":"JTDKDTB35E1079530","Name":"AE2 24K","Plate":null,"Lat":49.23118,"Lon":-123.098465,"Fuel":72,"Address":"350 E 43RD AVE"},{"Id":"JTDKDTB36G1126115","Name":"CR2 32N","Plate":null,"Lat":49.24025,"Lon":-123.105423,"Fuel":68,"Address":"4954 ONTARIO ST"},{"Id":"JTDKDTB30H1597985","Name":"EV0 13B","Plate":null,"Lat":49.29002,"Lon":-123.1436,"Fuel":42,"Address":"1067 CHILCO ST"},{"Id":"JTDKDTB30H1598327","Name":"EV0 62B","Plate":null,"Lat":49.2896538,"Lon":-123.144264,"Fuel":69,"Address":"1092 CHILCO ST"},{"Id":"JTDKDTB39F1100851","Name":"BE3 38P","Plate":null,"Lat":49.2274971,"Lon":-123.097984,"Fuel":85,"Address":"373 E 47TH AVE"},{"Id":"JTDKDTB34E1570977","Name":"AE2 75K","Plate":null,"Lat":49.225975,"Lon":-123.097595,"Fuel":13,"Address":"6461 PRINCE EDWARD ST"},{"Id":"JTDKDTB3XE1570403","Name":"AE2 66K","Plate":null,"Lat":49.26658,"Lon":-123.128792,"Fuel":17,"Address":"1070 SITKA SQ"},{"Id":"JTDKDTB39G1139120","Name":"DN7 98K ","Plate":null,"Lat":49.26686,"Lon":-123.129044,"Fuel":18,"Address":"0 SITKA SQ"},{"Id":"JTDKDTB33G1588986","Name":"DN8 11K","Plate":null,"Lat":49.2262421,"Lon":-123.099586,"Fuel":84,"Address":"6439 SOPHIA ST"},{"Id":"JTDKDTB36H1598221","Name":"EV0 68B","Plate":null,"Lat":49.2725563,"Lon":-123.1361,"Fuel":25,"Address":"1650 DURANLEAU ST"},{"Id":"JTDKDTB31H1597641","Name":"EV0 28B","Plate":null,"Lat":49.23724,"Lon":-123.109665,"Fuel":13,"Address":"170 W 37TH AVE"},{"Id":"JTDKDTB34E1079390","Name":"AE1 44K","Plate":null,"Lat":49.265274,"Lon":-123.133209,"Fuel":42,"Address":"1270 W 7TH AVE"},{"Id":"JTDKDTB36H1598302","Name":"EV0 59B","Plate":null,"Lat":49.23953,"Lon":-123.113869,"Fuel":59,"Address":"0 "},{"Id":"JTDKDTB3XF1102690","Name":"BE2 65P","Plate":null,"Lat":49.24327,"Lon":-123.118538,"Fuel":43,"Address":"605 W 31ST AVE"},{"Id":"JTDKDTB3XG1126943","Name":"CR3 35N","Plate":null,"Lat":49.26641,"Lon":-123.136108,"Fuel":81,"Address":"2156 HEMLOCK ST"},{"Id":"JTDKDTB38H1598091","Name":"EV0 99A","Plate":null,"Lat":49.22584,"Lon":-123.1081,"Fuel":34,"Address":"87 W 49TH AVE"},{"Id":"JTDKDTB31G1118892","Name":"CH6 49A","Plate":null,"Lat":49.2176552,"Lon":-123.1037,"Fuel":85,"Address":"120 E 58TH AVE"},{"Id":"JTDKDTB35G1117924","Name":"CH7 27A","Plate":null,"Lat":49.22684,"Lon":-123.111832,"Fuel":84,"Address":"248 W 48TH AVE"},{"Id":"JTDKDTB38G1138329","Name":"DN6 93K","Plate":null,"Lat":49.213562,"Lon":-123.101982,"Fuel":48,"Address":"7869 MAIN ST"},{"Id":"JTDKDTB39E1571008","Name":"AE0 76K","Plate":null,"Lat":49.22431,"Lon":-123.112251,"Fuel":33,"Address":"0 "},{"Id":"JTDKDTB3XF1102771","Name":"BE3 13P","Plate":null,"Lat":49.27577,"Lon":-123.151489,"Fuel":43,"Address":"1158 ARBUTUS ST"},{"Id":"JTDKDTB39E1079837","Name":"AE0 93K","Plate":null,"Lat":49.22486,"Lon":-123.11306,"Fuel":84,"Address":"6545 ALBERTA ST"},{"Id":"JTDKDTB37H1597644","Name":"EV0 75A","Plate":null,"Lat":49.2752647,"Lon":-123.151909,"Fuel":18,"Address":"1220 ARBUTUS ST"},{"Id":"JTDKDTB34F1110266","Name":"BV2 95D","Plate":null,"Lat":49.2630768,"Lon":-123.143471,"Fuel":76,"Address":"2559 PINE ST"},{"Id":"JTDKDTB34H1598640","Name":"EV0 94B","Plate":null,"Lat":49.2599678,"Lon":-123.142426,"Fuel":85,"Address":"1650 W 13TH AVE"},{"Id":"JTDKDTB32H1598801","Name":"EV0 36C","Plate":null,"Lat":49.2168159,"Lon":-123.110268,"Fuel":23,"Address":"224 W 59TH AVE"},{"Id":"JTDKDTB31G1589179","Name":"DN9 18K","Plate":null,"Lat":49.2728577,"Lon":-123.153961,"Fuel":43,"Address":"0 "},{"Id":"JTDKDTB39G1118526","Name":"CH6 25A","Plate":null,"Lat":49.2708549,"Lon":-123.152443,"Fuel":80,"Address":"2065 W 1ST AVE"},{"Id":"JTDKDTB32H1596787","Name":"EV0 10A","Plate":null,"Lat":49.25842,"Lon":-123.143532,"Fuel":85,"Address":"3039 PINE ST"},{"Id":"JTDKDTB33G1117761","Name":"CH5 82A","Plate":null,"Lat":49.2377167,"Lon":-123.128593,"Fuel":76,"Address":"1006 W 37TH AVE"},{"Id":"JTDKDTB33G1126864","Name":"CR3 31N","Plate":null,"Lat":49.27076,"Lon":-123.1537,"Fuel":85,"Address":"2137 W 1ST AVE"},{"Id":"JTDKDTB3XH1598237","Name":"EV0 74B","Plate":null,"Lat":49.24799,"Lon":-123.136887,"Fuel":77,"Address":"4226 CARTIER ST"},{"Id":"JTDKDTB30E1570622","Name":"AE2 10K","Plate":null,"Lat":49.2690544,"Lon":-123.153183,"Fuel":75,"Address":"2131 W 3RD AVE"},{"Id":"JTDKDTB35H1598193","Name":"EV0 37B","Plate":null,"Lat":49.27042,"Lon":-123.154732,"Fuel":55,"Address":"1728 YEW ST"},{"Id":"JTDKDTB31G1125633","Name":"CR2 18N","Plate":null,"Lat":49.2135162,"Lon":-123.11277,"Fuel":69,"Address":"7859 COLUMBIA ST"},{"Id":"JTDKDTB39G1117652","Name":"CH6 33A","Plate":null,"Lat":49.22728,"Lon":-123.1235,"Fuel":72,"Address":"749 W 48TH AVE"},{"Id":"JTDKDTB38H1597622","Name":"EV0 36A","Plate":null,"Lat":49.26911,"Lon":-123.155396,"Fuel":84,"Address":"2233 W 3RD AVE"},{"Id":"JTDKDTB36G1119651","Name":"CH6 89A","Plate":null,"Lat":49.2690926,"Lon":-123.155563,"Fuel":85,"Address":"2216 W 3RD AVE"},{"Id":"JTDKDTB36E1079519","Name":"AE1 59K","Plate":null,"Lat":49.2581635,"Lon":-123.147583,"Fuel":34,"Address":"1865 W 15TH AVE"},{"Id":"JTDKDTB32H1597793","Name":"EV0 56A","Plate":null,"Lat":49.2711639,"Lon":-123.157494,"Fuel":21,"Address":"1631 VINE ST"},{"Id":"JTDKDTB34E1570445","Name":"AE1 78K","Plate":null,"Lat":49.2191162,"Lon":-123.11824,"Fuel":46,"Address":"650 W 57TH AVE"},{"Id":"JTDKDTB38G1118193","Name":"CH7 28A","Plate":null,"Lat":49.2679,"Lon":-123.155273,"Fuel":29,"Address":"2030 YEW ST"},{"Id":"JTDKDTB3XG1127221","Name":"CR3 08N","Plate":null,"Lat":49.2691078,"Lon":-123.156853,"Fuel":56,"Address":"2268 W 3RD AVE"},{"Id":"JTDKDTB30E1080021","Name":"AE1 50K","Plate":null,"Lat":49.21603,"Lon":-123.116707,"Fuel":55,"Address":"7584 CAMBIE ST"},{"Id":"JTDKDTB38H1598463","Name":"EV0 18C","Plate":null,"Lat":49.2159462,"Lon":-123.116714,"Fuel":11,"Address":"7612 CAMBIE ST"},{"Id":"JTDKDTB39E1571011","Name":"AE0 77K","Plate":null,"Lat":49.21614,"Lon":-123.117134,"Fuel":23,"Address":"7575 CAMBIE ST"},{"Id":"JTDKDTB37G1125958","Name":"CR2 22N","Plate":null,"Lat":49.269165,"Lon":-123.158409,"Fuel":23,"Address":"2335 W 3RD AVE"},{"Id":"JTDKDTB38E1079330","Name":"AE2 48K","Plate":null,"Lat":49.23019,"Lon":-123.128876,"Fuel":79,"Address":"1003 W 45TH AVE"},{"Id":"JTDKDTB35G1126834","Name":"CR3 48N","Plate":null,"Lat":49.26916,"Lon":-123.159019,"Fuel":42,"Address":"2365 W 3RD AVE"},{"Id":"JTDKDTB39G1589141","Name":"DN8 99K","Plate":null,"Lat":49.22067,"Lon":-123.122314,"Fuel":69,"Address":"7108 NEAL ST"},{"Id":"JTDKDTB32G1127701","Name":"CR3 01N","Plate":null,"Lat":49.23222,"Lon":-123.131081,"Fuel":85,"Address":"1157 W 43RD AVE"},{"Id":"JTDKDTB32G1118352","Name":"CH6 09A","Plate":null,"Lat":49.26953,"Lon":-123.159378,"Fuel":18,"Address":"1898 BALSAM ST"},{"Id":"JTDKDTB3XG1589133","Name":"DN8 85K","Plate":null,"Lat":49.26918,"Lon":-123.159142,"Fuel":77,"Address":"2365 W 3RD AVE"},{"Id":"JTDKDTB31E1079041","Name":"AE1 95K","Plate":null,"Lat":49.26922,"Lon":-123.159462,"Fuel":22,"Address":"2386 W 3RD AVE"},{"Id":"JTDKDTB30J1611471","Name":"FS7 46K","Plate":null,"Lat":49.26888,"Lon":-123.159805,"Fuel":31,"Address":"1926 BALSAM ST"},{"Id":"JTDKDTB38E1570707","Name":"AE2 42K","Plate":null,"Lat":49.2601051,"Lon":-123.153282,"Fuel":59,"Address":"2104 W 13TH AVE"},{"Id":"JTDKDTB39E1079868","Name":"AE0 94K","Plate":null,"Lat":49.26482,"Lon":-123.156944,"Fuel":77,"Address":"2255 W 8TH AVE"},{"Id":"JTDKDTB39G1138713","Name":"DN7 84K","Plate":null,"Lat":49.2601,"Lon":-123.1536,"Fuel":66,"Address":"2121 W 13TH AVE"},{"Id":"JTDKDTB39G1589205","Name":"DN9 15K","Plate":null,"Lat":49.2703743,"Lon":-123.16217,"Fuel":47,"Address":"1748 LARCH ST"},{"Id":"JTDKDTB39F1100459","Name":"BE2 59P","Plate":null,"Lat":49.2611046,"Lon":-123.156448,"Fuel":85,"Address":"2268 W 12TH AVE"},{"Id":"JTDKDTB37G1138421","Name":"DN8 25K","Plate":null,"Lat":49.21333,"Lon":-123.12059,"Fuel":38,"Address":"715 W 63RD AVE"},{"Id":"JTDKDTB37H1598857","Name":"EV0 44C","Plate":null,"Lat":49.2573051,"Lon":-123.154121,"Fuel":42,"Address":"2128 W 16TH AVE"},{"Id":"JTDKDTB33E1570629","Name":"AE1 31K","Plate":null,"Lat":49.25286,"Lon":-123.151161,"Fuel":52,"Address":"3689 CEDAR CRES"},{"Id":"JTDKDTB30G1125722","Name":"CR2 54N","Plate":null,"Lat":49.2151222,"Lon":-123.122604,"Fuel":33,"Address":"775 W 61ST AVE"},{"Id":"JTDKDTB3XF1101247","Name":"BE3 39P","Plate":null,"Lat":49.26669,"Lon":-123.162331,"Fuel":66,"Address":"2187 LARCH ST"},{"Id":"JTDKDTB30G1138521","Name":"DN7 58K","Plate":null,"Lat":49.21423,"Lon":-123.122635,"Fuel":56,"Address":"768 W 62ND AVE"},{"Id":"JTDKDTB38G1118677","Name":"CH7 06A","Plate":null,"Lat":49.2663155,"Lon":-123.162392,"Fuel":13,"Address":"2224 LARCH ST"},{"Id":"JTDKDTB30G1126871","Name":"CR3 36N","Plate":null,"Lat":49.2513123,"Lon":-123.151131,"Fuel":80,"Address":"3995 MAPLE CRES"},{"Id":"JTDKDTB30G1589013","Name":"DN8 35K","Plate":null,"Lat":49.26569,"Lon":-123.162132,"Fuel":84,"Address":"2497 W 7TH AVE"},{"Id":"JTDKDTB35G1117096","Name":"CH5 76A","Plate":null,"Lat":49.24732,"Lon":-123.148918,"Fuel":11,"Address":"4338 CYPRESS ST"},{"Id":"JTDKDTB30G1117099","Name":"CH5 73A","Plate":null,"Lat":49.2123032,"Lon":-123.12262,"Fuel":77,"Address":"766 W 64TH AVE"},{"Id":"JTDKDTB30G1138437","Name":"DN7 11K","Plate":null,"Lat":49.23716,"Lon":-123.141777,"Fuel":85,"Address":"1621 AVONDALE AVE"},{"Id":"JTDKDTB3XG1138302","Name":"DN6 96K","Plate":null,"Lat":49.2222824,"Lon":-123.130775,"Fuel":55,"Address":"7061 OSLER ST"},{"Id":"JTDKDTB30G1118320","Name":"CH7 31A","Plate":null,"Lat":49.24762,"Lon":-123.150642,"Fuel":60,"Address":"2020 NANTON AVE"},{"Id":"JTDKDTB35G1139177","Name":"DN8 45K","Plate":null,"Lat":49.2102852,"Lon":-123.122429,"Fuel":83,"Address":"743 W 68TH AVE"},{"Id":"JTDKDTB39G1589110","Name":"DN8 82K","Plate":null,"Lat":49.2351265,"Lon":-123.14138,"Fuel":22,"Address":"5640 CHURCHILL ST"},{"Id":"JTDKDTB33G1126587","Name":"CR2 73N","Plate":null,"Lat":49.21114,"Lon":-123.123291,"Fuel":85,"Address":"775 W 66TH AVE"},{"Id":"JTDKDTB30F1100267","Name":"BE2 82P","Plate":null,"Lat":49.234333,"Lon":-123.141579,"Fuel":55,"Address":"1612 W 41ST AVE"},{"Id":"JTDKDTB33F1100182","Name":"BE2 96P","Plate":null,"Lat":49.2344475,"Lon":-123.141678,"Fuel":85,"Address":"1612 W 41ST AVE"},{"Id":"JTDKDTB3XF1110885","Name":"BV2 98D","Plate":null,"Lat":49.2467728,"Lon":-123.151917,"Fuel":56,"Address":"4389 MAPLE ST"},{"Id":"JTDKDTB34F1111949","Name":"BV3 07D","Plate":null,"Lat":49.21425,"Lon":-123.127335,"Fuel":35,"Address":"7854 FREMLIN ST"},{"Id":"JTDKDTB33G1127724","Name":"CR3 02N ","Plate":null,"Lat":49.26336,"Lon":-123.164665,"Fuel":62,"Address":"2560 TRAFALGAR ST"},{"Id":"JTDKDTB31H1598577","Name":"EV0 25C","Plate":null,"Lat":49.2649574,"Lon":-123.165977,"Fuel":83,"Address":"2680 W 8TH AVE"},{"Id":"JTDKDTB33H1597723","Name":"EV0 43A","Plate":null,"Lat":49.2574463,"Lon":-123.160835,"Fuel":85,"Address":"2415 W 16TH AVE"},{"Id":"JTDKDTB33E1571120","Name":"AE1 40K","Plate":null,"Lat":49.20786,"Lon":-123.124306,"Fuel":40,"Address":"8620 HEATHER ST"},{"Id":"JTDKDTB35G1138174","Name":"DN6 95K","Plate":null,"Lat":49.2076,"Lon":-123.124214,"Fuel":54,"Address":"8669 HEATHER ST"},{"Id":"JTDKDTB34H1597522","Name":"EV0 31A","Plate":null,"Lat":49.2503357,"Lon":-123.156593,"Fuel":84,"Address":"4055 VINE ST"},{"Id":"JTDKDTB33E1079977","Name":"AE3 12K","Plate":null,"Lat":49.247612,"Lon":-123.154533,"Fuel":84,"Address":"2185 NANTON AVE"},{"Id":"JTDKDTB30E1079693","Name":"AE1 92K","Plate":null,"Lat":49.20761,"Lon":-123.124283,"Fuel":83,"Address":"8669 HEATHER ST"},{"Id":"JTDKDTB34F1112230","Name":"BV3 19D","Plate":null,"Lat":49.2622337,"Lon":-123.165726,"Fuel":51,"Address":"2641 W 11TH AVE"},{"Id":"JTDKDTB35E1079219","Name":"AE2 19K","Plate":null,"Lat":49.2080879,"Lon":-123.125061,"Fuel":17,"Address":"8625 LOGAN ST"},{"Id":"JTDKDTB38E1079540","Name":"AE2 50K","Plate":null,"Lat":49.26323,"Lon":-123.167496,"Fuel":63,"Address":"2750 W 10TH AVE"},{"Id":"JTDKDTB38H1597829","Name":"EV0 47A","Plate":null,"Lat":49.21296,"Lon":-123.129593,"Fuel":69,"Address":"988 W 64TH AVE"},{"Id":"JTDKDTB30H1597419","Name":"EV0 25A","Plate":null,"Lat":49.2703743,"Lon":-123.173721,"Fuel":85,"Address":"1766 BALACLAVA ST"},{"Id":"JTDKDTB31E1570693","Name":"AE2 04K","Plate":null,"Lat":49.2381859,"Lon":-123.150116,"Fuel":77,"Address":"1928 W 37TH AVE"},{"Id":"JTDKDTB30G1126014","Name":"CR2 55N","Plate":null,"Lat":49.2079048,"Lon":-123.127617,"Fuel":75,"Address":"8635 FREMLIN ST"},{"Id":"JTDKDTB39E1079899","Name":"AE0 95K","Plate":null,"Lat":49.2693062,"Lon":-123.174217,"Fuel":51,"Address":"3108 W 3RD AVE"},{"Id":"JTDKDTB39G1589009","Name":"DN8 68K","Plate":null,"Lat":49.2652054,"Lon":-123.171135,"Fuel":38,"Address":"2355 BAYSWATER ST"},{"Id":"JTDKDTB37G1118377","Name":"CH6 16A","Plate":null,"Lat":49.2623138,"Lon":-123.169,"Fuel":80,"Address":"2834 W 11TH AVE"},{"Id":"JTDKDTB32H1597888","Name":"EV0 77A","Plate":null,"Lat":49.2635956,"Lon":-123.170166,"Fuel":15,"Address":"2529 MACKENZIE ST"},{"Id":"JTDKDTB3XG1138249","Name":"DN6 85K","Plate":null,"Lat":49.2090034,"Lon":-123.128914,"Fuel":44,"Address":"8531 SHAUGHNESSY ST"},{"Id":"JTDKDTB30G1117782","Name":"CH6 43A","Plate":null,"Lat":49.2087173,"Lon":-123.128891,"Fuel":62,"Address":"8544 SHAUGHNESSY ST"},{"Id":"JTDKDTB36G1126793","Name":"CR3 24N","Plate":null,"Lat":49.2217064,"Lon":-123.138817,"Fuel":39,"Address":"1435 W 54TH AVE"},{"Id":"JTDKDTB30G1117751","Name":"CH5 94A","Plate":null,"Lat":49.26111,"Lon":-123.168724,"Fuel":85,"Address":"2830 MACDONALD ST"},{"Id":"JTDKDTB33G1126668","Name":"CR2 85N","Plate":null,"Lat":49.20829,"Lon":-123.128906,"Fuel":50,"Address":"8605 SHAUGHNESSY ST"},{"Id":"JTDKDTB30F1111494","Name":"BV3 00D","Plate":null,"Lat":49.2693176,"Lon":-123.1752,"Fuel":47,"Address":"3170 W 3RD AVE"},{"Id":"JTDKDTB30G1138115","Name":"DN7 44K","Plate":null,"Lat":49.2131767,"Lon":-123.132904,"Fuel":44,"Address":"1220 W 64TH AVE"},{"Id":"JTDKDTB32G1119548","Name":"CH6 64A","Plate":null,"Lat":49.2069473,"Lon":-123.128693,"Fuel":59,"Address":"942 W 71ST AVE"},{"Id":"JTDKDTB37H1598096","Name":"EV0 96A","Plate":null,"Lat":49.254982,"Lon":-123.165207,"Fuel":46,"Address":"3550 TRAFALGAR ST"},{"Id":"JTDKDTB30G1589030","Name":"DN8 36K ","Plate":null,"Lat":49.2070541,"Lon":-123.128967,"Fuel":27,"Address":"8686 SHAUGHNESSY ST"},{"Id":"JTDKDTB32F1101047","Name":"BE3 04P","Plate":null,"Lat":49.2061,"Lon":-123.12841,"Fuel":68,"Address":"0 "},{"Id":"JTDKDTB39F1100803","Name":"BE3 09P","Plate":null,"Lat":49.2068825,"Lon":-123.129112,"Fuel":71,"Address":"950 W 71ST AVE"},{"Id":"JTDKDTB35G1116062","Name":"BE3 02P","Plate":null,"Lat":49.2667122,"Lon":-123.1746,"Fuel":77,"Address":"3126 W 6TH AVE"},{"Id":"JTDKDTB35H1597884","Name":"EV0 88A","Plate":null,"Lat":49.26594,"Lon":-123.174133,"Fuel":84,"Address":"3130 W 7TH AVE"},{"Id":"JTDKDTB30F1100110","Name":"BE3 06P","Plate":null,"Lat":49.2193642,"Lon":-123.139,"Fuel":85,"Address":"1467 W 57TH AVE"},{"Id":"JTDKDTB33H1598029","Name":"EV0 85A","Plate":null,"Lat":49.2628746,"Lon":-123.1722,"Fuel":64,"Address":"2642 CARNARVON ST"},{"Id":"JTDKDTB31G1127625","Name":"CR3 18N","Plate":null,"Lat":49.2335129,"Lon":-123.151382,"Fuel":13,"Address":"1984 W 42ND AVE"},{"Id":"JTDKDTB31E1571164","Name":"AE2 56K","Plate":null,"Lat":49.265667,"Lon":-123.175827,"Fuel":62,"Address":"2313 TRUTCH ST"},{"Id":"JTDKDTB36F1111239","Name":"BV2 86D","Plate":null,"Lat":49.2684479,"Lon":-123.17794,"Fuel":85,"Address":"3350 W 4TH AVE"},{"Id":"JTDKDTB31G1589165","Name":"DN9 24K","Plate":null,"Lat":49.2684555,"Lon":-123.178032,"Fuel":77,"Address":"3350 W 4TH AVE"},{"Id":"JTDKDTB34G1119129","Name":"CH6 67A","Plate":null,"Lat":49.2151566,"Lon":-123.13765,"Fuel":17,"Address":"1411 W 62ND AVE"},{"Id":"JTDKDTB3XE1570398","Name":"AE2 54K","Plate":null,"Lat":49.2071648,"Lon":-123.131615,"Fuel":58,"Address":"8678 OSLER ST"},{"Id":"JTDKDTB37G1138256","Name":"DN7 37K","Plate":null,"Lat":49.2052841,"Lon":-123.130478,"Fuel":33,"Address":"8838 OAK ST"},{"Id":"JTDKDTB38G1138153","Name":"DN6 83K","Plate":null,"Lat":49.2491875,"Lon":-123.163834,"Fuel":85,"Address":"2626 OLIVER CRES"},{"Id":"JTDKDTB31G1127091","Name":"CR2 93N","Plate":null,"Lat":49.20678,"Lon":-123.131752,"Fuel":85,"Address":"8750 OSLER ST"},{"Id":"JTDKDTB36J1609188","Name":"FS7 37K","Plate":null,"Lat":49.2077332,"Lon":-123.13324,"Fuel":68,"Address":"8623 SELKIRK ST"},{"Id":"JTDKDTB34E1571126","Name":"AE2 76K","Plate":null,"Lat":49.2690773,"Lon":-123.179779,"Fuel":84,"Address":"1923 WATERLOO ST"},{"Id":"JTDKDTB32G1126077","Name":"CR2 49N","Plate":null,"Lat":49.2383461,"Lon":-123.156487,"Fuel":64,"Address":"2122 W 37TH AVE"},{"Id":"JTDKDTB3XG1119121","Name":"CH6 45A","Plate":null,"Lat":49.2323036,"Lon":-123.1522,"Fuel":85,"Address":"5959 MAPLE ST"},{"Id":"JTDKDTB30F1103363","Name":"BE3 36P","Plate":null,"Lat":49.238308,"Lon":-123.157158,"Fuel":47,"Address":"2155 W 37TH AVE"},{"Id":"JTDKDTB32G1118836","Name":"CH7 24A","Plate":null,"Lat":49.20826,"Lon":-123.13456,"Fuel":43,"Address":"8619 HUDSON ST"},{"Id":"JTDKDTB38H1597782","Name":"EV0 37A","Plate":null,"Lat":49.2063446,"Lon":-123.133308,"Fuel":84,"Address":"8741 SELKIRK ST"},{"Id":"JTDKDTB30E1570491","Name":"AE2 08K","Plate":null,"Lat":49.20564,"Lon":-123.13298,"Fuel":25,"Address":"1178 W 72ND AVE"},{"Id":"JTDKDTB39G1138095","Name":"DN8 00K","Plate":null,"Lat":49.2500458,"Lon":-123.16745,"Fuel":85,"Address":"2785 ALAMEIN ST"},{"Id":"JTDKDTB32G1138388","Name":"DN6 99K","Plate":null,"Lat":49.206974,"Lon":-123.135147,"Fuel":50,"Address":"1330 W 71ST AVE"},{"Id":"JTDKDTB36F1111693","Name":"BV3 10D","Plate":null,"Lat":49.2070732,"Lon":-123.135422,"Fuel":62,"Address":"1323 W 71ST AVE"},{"Id":"JTDKDTB37G1118542","Name":"CH5 85A","Plate":null,"Lat":49.2036133,"Lon":-123.133385,"Fuel":84,"Address":"1251 SW MARINE DR"},{"Id":"JTDKDTB35G1127630","Name":"CR3 40N","Plate":null,"Lat":49.20699,"Lon":-123.136604,"Fuel":68,"Address":"1355 W 71ST AVE"},{"Id":"JTDKDTB31E1570712","Name":"AE1 93K","Plate":null,"Lat":49.2624779,"Lon":-123.178864,"Fuel":79,"Address":"3356 W 11TH AVE"},{"Id":"JTDKDTB39G1139246","Name":"DN8 15K","Plate":null,"Lat":49.207798,"Lon":-123.137634,"Fuel":67,"Address":"8656 CARTIER ST"},{"Id":"JTDKDTB30F1101113","Name":"BE3 45P","Plate":null,"Lat":49.25102,"Lon":-123.170418,"Fuel":67,"Address":"2906 W 24TH AVE"},{"Id":"JTDKDTB30G1138440","Name":"DN7 57K","Plate":null,"Lat":49.2051239,"Lon":-123.136192,"Fuel":38,"Address":"8869 MONTCALM ST"},{"Id":"JTDKDTB33G1117243","Name":"CH5 99A","Plate":null,"Lat":49.2058029,"Lon":-123.136818,"Fuel":83,"Address":"1373 W 72ND AVE"},{"Id":"JTDKDTB34G1589211","Name":"DN9 11K","Plate":null,"Lat":49.23396,"Lon":-123.158592,"Fuel":29,"Address":"5750 YEW ST"},{"Id":"JTDKDTB37F1110245","Name":"BV2 88D","Plate":null,"Lat":49.20709,"Lon":-123.138435,"Fuel":83,"Address":"1440 W 71ST AVE"},{"Id":"JTDKDTB32H1597776","Name":"EV0 42B","Plate":null,"Lat":49.2062149,"Lon":-123.13784,"Fuel":85,"Address":"8740 CARTIER ST"},{"Id":"JTDKDTB36H1598655","Name":"EV0 32C","Plate":null,"Lat":49.204277,"Lon":-123.136505,"Fuel":75,"Address":"8938 MONTCALM ST"},{"Id":"JTDKDTB38G1138296","Name":"DN7 04K","Plate":null,"Lat":49.2070045,"Lon":-123.138748,"Fuel":79,"Address":"1444 W 71ST AVE"},{"Id":"JTDKDTB38E1570500","Name":"AE2 39K","Plate":null,"Lat":49.2074242,"Lon":-123.139183,"Fuel":35,"Address":"8692 FRENCH ST"},{"Id":"JTDKDTB35J1613894","Name":"FS7 48K","Plate":null,"Lat":49.2057343,"Lon":-123.138542,"Fuel":73,"Address":"1445 W 72ND AVE"},{"Id":"JTDKDTB38E1079411","Name":"AE2 49K","Plate":null,"Lat":49.2057381,"Lon":-123.138763,"Fuel":85,"Address":"1445 W 72ND AVE"},{"Id":"JTDKDTB38G1589213","Name":"EF9 01D","Plate":null,"Lat":49.2354431,"Lon":-123.161354,"Fuel":60,"Address":"5614 BALSAM ST"},{"Id":"JTDKDTB3XH1597931","Name":"EV0 78A","Plate":null,"Lat":49.206028,"Lon":-123.139389,"Fuel":85,"Address":"8738 FRENCH ST"},{"Id":"JTDKDTB30H1598246","Name":"EV0 51B","Plate":null,"Lat":49.24324,"Lon":-123.167641,"Fuel":73,"Address":"2787 W 32ND AVE"},{"Id":"JTDKDTB33G1119381","Name":"CH6 93A","Plate":null,"Lat":49.231575,"Lon":-123.159462,"Fuel":58,"Address":"6020 VINE ST"},{"Id":"JTDKDTB31G1138317","Name":"DN8 24K","Plate":null,"Lat":49.2328568,"Lon":-123.160835,"Fuel":85,"Address":"2376 W 43RD AVE"},{"Id":"JTDKDTB30H1597758","Name":"EV0 27A","Plate":null,"Lat":49.2549553,"Lon":-123.178444,"Fuel":21,"Address":"3567 BLENHEIM ST"},{"Id":"JTDKDTB33G1138495","Name":"DN8 28K","Plate":null,"Lat":49.24896,"Lon":-123.174583,"Fuel":67,"Address":"3118 W 26TH AVE"},{"Id":"JTDKDTB31J1608997","Name":"EF9 24D","Plate":null,"Lat":49.24808,"Lon":-123.1742,"Fuel":59,"Address":"3098 W 27TH AVE"},{"Id":"JTDKDTB35G1118944","Name":"CH6 78A","Plate":null,"Lat":49.25189,"Lon":-123.177414,"Fuel":84,"Address":"3267 W 23RD AVE"},{"Id":"JTDKDTB31H1597817","Name":"EV0 65A","Plate":null,"Lat":49.23379,"Lon":-123.164642,"Fuel":30,"Address":"2616 W 42ND AVE"},{"Id":"JTDKDTB35G1125859","Name":"CR2 21N","Plate":null,"Lat":49.2366524,"Lon":-123.169014,"Fuel":69,"Address":"2866 W 39TH AVE"},{"Id":"JTDKDTB38F1110271","Name":"BV2 91D","Plate":null,"Lat":49.2310066,"Lon":-123.164879,"Fuel":85,"Address":"2607 W 45TH AVE"},{"Id":"JTDKDTB34G1123746","Name":"EF9 05D","Plate":null,"Lat":49.2341957,"Lon":-123.167328,"Fuel":76,"Address":"5756 MACDONALD ST"},{"Id":"JTDKDTB3XG1589004","Name":"DN8 48K","Plate":null,"Lat":49.2339821,"Lon":-123.1675,"Fuel":71,"Address":"5790 MACDONALD ST"},{"Id":"JTDKDTB3XG1118261","Name":"CH5 83A","Plate":null,"Lat":49.2537842,"Lon":-123.183769,"Fuel":38,"Address":"3566 W 21ST AVE"},{"Id":"JTDKDTB30G1126188","Name":"CR2 04N","Plate":null,"Lat":49.27449,"Lon":-123.201775,"Fuel":30,"Address":"0 "},{"Id":"JTDKDTB3XH1598738","Name":"EV0 10C","Plate":null,"Lat":49.25968,"Lon":-123.1911,"Fuel":62,"Address":"3024 WALLACE ST"},{"Id":"JTDKDTB38H1597751","Name":"EV0 71A","Plate":null,"Lat":49.25998,"Lon":-123.191895,"Fuel":46,"Address":"3925 W 14TH AVE"},{"Id":"JTDKDTB36G1117849","Name":"CH7 38A","Plate":null,"Lat":49.2277145,"Lon":-123.167526,"Fuel":81,"Address":"6489 MACDONALD ST"},{"Id":"JTDKDTB30H1598148","Name":"EV0 90A","Plate":null,"Lat":49.2404366,"Lon":-123.177284,"Fuel":67,"Address":"3260 W 35TH AVE"},{"Id":"JTDKDTB34G1138800","Name":"FS7 27K","Plate":null,"Lat":49.2471237,"Lon":-123.182434,"Fuel":85,"Address":"3515 W 28TH AVE"},{"Id":"JTDKDTB33H1597687","Name":"EV0 14A","Plate":null,"Lat":49.2653465,"Lon":-123.196426,"Fuel":26,"Address":"4092 W 8TH AVE"},{"Id":"JTDKDTB31G1117595","Name":"CH6 29A","Plate":null,"Lat":49.2635574,"Lon":-123.19561,"Fuel":84,"Address":"4024 W 10TH AVE"},{"Id":"JTDKDTB30E1079421","Name":"AE2 96K","Plate":null,"Lat":49.2555847,"Lon":-123.18956,"Fuel":75,"Address":"3853 W 19TH AVE"},{"Id":"JTDKDTB32H1597406","Name":"EV0 29A","Plate":null,"Lat":49.2471466,"Lon":-123.183937,"Fuel":85,"Address":"3568 W 28TH AVE"},{"Id":"JTDKDTB34G1138862","Name":"DN8 18K","Plate":null,"Lat":49.27033,"Lon":-123.202209,"Fuel":85,"Address":"4273 NW MARINE DR"},{"Id":"JTDKDTB31G1138365","Name":"DN7 99K","Plate":null,"Lat":49.2375336,"Lon":-123.177322,"Fuel":11,"Address":"3264 W 38TH AVE"},{"Id":"JTDKDTB37G1126382","Name":"CR2 15N","Plate":null,"Lat":49.2629242,"Lon":-123.19706,"Fuel":30,"Address":"2686 CAMOSUN ST"},{"Id":"JTDKDTB31G1119394","Name":"CH6 55A","Plate":null,"Lat":49.2713242,"Lon":-123.203659,"Fuel":54,"Address":"4318 W 2ND AVE"},{"Id":"JTDKDTB33G1127108","Name":"CR3 11N","Plate":null,"Lat":49.27487,"Lon":-123.206635,"Fuel":27,"Address":"4422 NW MARINE DR"},{"Id":"JTDKDTB39E1570988","Name":"AE0 75K","Plate":null,"Lat":49.254734,"Lon":-123.191513,"Fuel":85,"Address":"3926 W 20TH AVE"},{"Id":"JTDKDTB30H1598392","Name":"EV0 52B","Plate":null,"Lat":49.23776,"Lon":-123.179626,"Fuel":76,"Address":"3349 W 38TH AVE"},{"Id":"JTDKDTB32F1103574","Name":"BE3 50P","Plate":null,"Lat":49.27456,"Lon":-123.208359,"Fuel":85,"Address":"4492 NW MARINE DR"},{"Id":"JTDKDTB38E1570528","Name":"AE2 40K","Plate":null,"Lat":49.2749138,"Lon":-123.211372,"Fuel":54,"Address":"4576 NW MARINE DR"},{"Id":"JTDKDTB3XF1103175","Name":"BE2 78P","Plate":null,"Lat":49.236908,"Lon":-123.183662,"Fuel":33,"Address":"3547 MAYFAIR AVE"},{"Id":"JTDKDTB36H1597568","Name":"EV0 09A","Plate":null,"Lat":49.2754478,"Lon":-123.213272,"Fuel":35,"Address":"4658 NW MARINE DR"},{"Id":"JTDKDTB36G1589064","Name":"DN8 52K","Plate":null,"Lat":49.2616348,"Lon":-123.203049,"Fuel":60,"Address":"2831 DISCOVERY ST"},{"Id":"JTDKDTB36E1571189","Name":"AE1 67K","Plate":null,"Lat":49.2481079,"Lon":-123.192848,"Fuel":56,"Address":"3978 W 27TH AVE"},{"Id":"JTDKDTB36G1119262","Name":"CH6 83A","Plate":null,"Lat":49.2611961,"Lon":-123.203194,"Fuel":59,"Address":"2875 DISCOVERY ST"},{"Id":"JTDKDTB34G1127327","Name":"CR3 13N","Plate":null,"Lat":49.24816,"Lon":-123.194283,"Fuel":36,"Address":"4021 W 27TH AVE"},{"Id":"JTDKDTB33G1589233","Name":"DN9 20K","Plate":null,"Lat":49.241436,"Lon":-123.18924,"Fuel":85,"Address":"3838 W 34TH AVE"},{"Id":"JTDKDTB34G1118546","Name":"CH6 20A","Plate":null,"Lat":49.1918945,"Lon":-123.151741,"Fuel":68,"Address":"6369 MILLER RD"},{"Id":"JTDKDTB39H1597855","Name":"EV0 73A","Plate":null,"Lat":49.24247,"Lon":-123.190208,"Fuel":27,"Address":"3878 W 33RD AVE"},{"Id":"JTDKDTB36G1126342","Name":"CR2 87N","Plate":null,"Lat":49.1918831,"Lon":-123.152214,"Fuel":44,"Address":"6355 MILLER RD"},{"Id":"JTDKDTB30E1079449","Name":"AE2 97K","Plate":null,"Lat":49.1919632,"Lon":-123.15229,"Fuel":55,"Address":"6351 MILLER RD"},{"Id":"JTDKDTB31G1126104","Name":"CR2 59N","Plate":null,"Lat":49.19192,"Lon":-123.152313,"Fuel":85,"Address":"6351 MILLER RD"},{"Id":"JTDKDTB32G1139234","Name":"DN8 57K","Plate":null,"Lat":49.1919441,"Lon":-123.152374,"Fuel":19,"Address":"6349 MILLER RD"},{"Id":"JTDKDTB39E1570585","Name":"AE0 84k","Plate":null,"Lat":49.1919365,"Lon":-123.152367,"Fuel":63,"Address":"6349 MILLER RD"},{"Id":"JTDKDTB34G1138635","Name":"DN7 80K","Plate":null,"Lat":49.19194,"Lon":-123.152443,"Fuel":29,"Address":"6347 MILLER RD"},{"Id":"JTDKDTB3XG1118230","Name":"CH6 26A","Plate":null,"Lat":49.2471466,"Lon":-123.194542,"Fuel":68,"Address":"4028 W 28TH AVE"},{"Id":"JTDKDTB38G1138251","Name":"DN6 90K","Plate":null,"Lat":49.19185,"Lon":-123.152649,"Fuel":83,"Address":"6341 MILLER RD"},{"Id":"JTDKDTB38F1100517","Name":"BE3 16P","Plate":null,"Lat":49.27139,"Lon":-123.213005,"Fuel":30,"Address":"4621 W 2ND AVE"},{"Id":"JTDKDTB30G1117720","Name":"CH5 93A","Plate":null,"Lat":49.19179,"Lon":-123.152649,"Fuel":50,"Address":"6341 MILLER RD"},{"Id":"JTDKDTB36G1116989","Name":"EF9 00D","Plate":null,"Lat":49.1918564,"Lon":-123.152695,"Fuel":34,"Address":"6339 MILLER RD"},{"Id":"JTDKDTB37E1570472","Name":"AE1 19K","Plate":null,"Lat":49.19179,"Lon":-123.152687,"Fuel":85,"Address":"6339 MILLER RD"},{"Id":"JTDKDTB38H1598298","Name":"EV0 71B","Plate":null,"Lat":49.19186,"Lon":-123.152763,"Fuel":25,"Address":"6337 MILLER RD"},{"Id":"JTDKDTB34F1101275","Name":"BE3 19P","Plate":null,"Lat":49.2714539,"Lon":-123.213181,"Fuel":83,"Address":"4629 W 2ND AVE"},{"Id":"JTDKDTB38E1571016","Name":"AE1 72K","Plate":null,"Lat":49.191864,"Lon":-123.152863,"Fuel":46,"Address":"6335 MILLER RD"},{"Id":"JTDKDTB34G1589161","Name":"DN9 10K","Plate":null,"Lat":49.2714577,"Lon":-123.21331,"Fuel":47,"Address":"4634 W 2ND AVE"},{"Id":"JTDKDTB30G1138549","Name":"DN7 68K","Plate":null,"Lat":49.2481346,"Lon":-123.196205,"Fuel":42,"Address":"4086 W 27TH AVE"},{"Id":"JTDKDTB38G1126567","Name":"CR2 26N","Plate":null,"Lat":49.2717438,"Lon":-123.214867,"Fuel":84,"Address":"1775 BLANCA ST"},{"Id":"JTDKDTB31G1138155","Name":"DN6 87K","Plate":null,"Lat":49.25992,"Lon":-123.206253,"Fuel":42,"Address":"3026 TRIMBLE ST"},{"Id":"JTDKDTB38G1138380","Name":"DN7 56K","Plate":null,"Lat":49.2647858,"Lon":-123.210876,"Fuel":48,"Address":"4563 W 9TH AVE"},{"Id":"JTDKDTB31F1102822","Name":"BE2 77P","Plate":null,"Lat":49.26294,"Lon":-123.210426,"Fuel":73,"Address":"4539 W 11TH AVE"},{"Id":"JTDKDTB37E1079240","Name":"AE1 07K","Plate":null,"Lat":49.23163,"Lon":-123.187065,"Fuel":69,"Address":"6089 ALMA ST"},{"Id":"JTDKDTB34E1570428","Name":"AE1 77K","Plate":null,"Lat":49.266407,"Lon":-123.215027,"Fuel":14,"Address":"2315 BLANCA ST"},{"Id":"JTDKDTB37G1589140","Name":"DN8 80K","Plate":null,"Lat":49.26203,"Lon":-123.213333,"Fuel":85,"Address":"4632 W 12TH AVE"},{"Id":"JTDKDTB33E1570906","Name":"AE1 36K","Plate":null,"Lat":49.26211,"Lon":-123.214096,"Fuel":76,"Address":"4662 W 12TH AVE"},{"Id":"JTDKDTB31G1119489","Name":"CH6 54A","Plate":null,"Lat":49.2348175,"Lon":-123.195328,"Fuel":60,"Address":"4055 W 41ST AVE"},{"Id":"JTDKDTB38H1597801","Name":"EV0 72A","Plate":null,"Lat":49.25419,"Lon":-123.23024,"Fuel":75,"Address":"0 BINNING RD"},{"Id":"JTDKDTB31G1138382","Name":"DN6 92K","Plate":null,"Lat":49.2589264,"Lon":-123.233963,"Fuel":50,"Address":"5682 LINDEN CRES"},{"Id":"JTDKDTB38E1570349","Name":"AE2 34K","Plate":null,"Lat":49.25849,"Lon":-123.235779,"Fuel":66,"Address":"5735 HAMPTON PL"},{"Id":"JTDKDTB32E1080246","Name":"AE2 64K","Plate":null,"Lat":49.2627945,"Lon":-123.240211,"Fuel":42,"Address":"5782 FAIRVIEW AVE"},{"Id":"JTDKDTB35E1570356","Name":"AE2 30K","Plate":null,"Lat":49.26275,"Lon":-123.240288,"Fuel":40,"Address":"5783 FAIRVIEW AVE"},{"Id":"JTDKDTB32G1589000","Name":"FS7 29K","Plate":null,"Lat":49.25268,"Lon":-123.233246,"Fuel":85,"Address":"5869 GRAY AVE"},{"Id":"JTDKDTB37G1117195","Name":"CH5 97A","Plate":null,"Lat":49.2512169,"Lon":-123.2334,"Fuel":69,"Address":"0 "},{"Id":"JTDKDTB33G1117016","Name":"CH5 63A","Plate":null,"Lat":49.2513046,"Lon":-123.235786,"Fuel":21,"Address":"0 "},{"Id":"JTDKDTB32H1598278","Name":"EV0 55B","Plate":null,"Lat":49.2513657,"Lon":-123.235909,"Fuel":68,"Address":"0 "},{"Id":"JTDKDTB3XE1080298","Name":"AE1 27K","Plate":null,"Lat":49.26062,"Lon":-123.24585,"Fuel":39,"Address":"0 "},{"Id":"JTDKDTB35G1117311","Name":"CH5 61A","Plate":null,"Lat":49.25818,"Lon":-123.244957,"Fuel":44,"Address":"6127 EAGLES DR"},{"Id":"JTDKDTB32F1102456","Name":"BE2 67P","Plate":null,"Lat":49.2601471,"Lon":-123.249428,"Fuel":40,"Address":"0 "},{"Id":"JTDKDTB31G1589022","Name":"DN8 61K","Plate":null,"Lat":49.2601166,"Lon":-123.249413,"Fuel":48,"Address":"0 "},{"Id":"JTDKDTB36G1139057","Name":"DN7 54K ","Plate":null,"Lat":49.2601166,"Lon":-123.249435,"Fuel":84,"Address":"0 "},{"Id":"JTDKDTB36G1589131","Name":"DN8 98K","Plate":null,"Lat":49.2601128,"Lon":-123.249481,"Fuel":31,"Address":"0 "},{"Id":"JTDKDTB30F1102682","Name":"BE3 30P","Plate":null,"Lat":49.25833,"Lon":-123.248184,"Fuel":77,"Address":"6320 LARKIN DR"},{"Id":"JTDKDTB35F1100295","Name":"BE2 70P","Plate":null,"Lat":49.258358,"Lon":-123.248207,"Fuel":56,"Address":"6318 LARKIN DR"},{"Id":"JTDKDTB39H1598519","Name":"EV0 20C","Plate":null,"Lat":49.2675743,"Lon":-123.257484,"Fuel":85,"Address":"0 "},{"Id":"JTDKDTB33H1598144","Name":"EV0 35B","Plate":null,"Lat":49.2587471,"Lon":-123.250877,"Fuel":34,"Address":"2527 WEST MALL"}]}